timestamp,des_x_t0,des_y_t0,des_z_t0,des_roll_t0,des_pitch_t0,des_yaw_t0,act_x_t0,act_y_t0,act_z_t0,act_roll_t0,act_pitch_t0,act_yaw_t0,dt
1763290172.732007,-2.092098786286986e-05,-2.3589008848124484e-05,3.3617256592247694e-05,-2.0506340393347996e-07,-1.1464162952279366e-12,9.154608865696467e-10,2.874053045455517e-07,1.829947774444201e-07,2.3738472216436929e-07,-1.2387806369182613e-08,8.005747353934112e-07,-1.375312130926772e-06,0.01
1763290172.7818904,-0.0010047948076065292,-0.0012008490109104684,0.002036199984986057,-1.6267467793707857e-07,1.7612552483114996e-07,-3.0185462254711457e-07,-3.628264895016747e-06,6.671344477784981e-06,6.818718455333722e-06,-1.8044453410320206e-05,4.39060029178151e-06,2.4689226130406495e-06,0.07501626014709473
1763290172.8364875,-0.0018826431539358845,-0.0019460247831618062,0.003845897993042665,-4.096667000968998e-06,1.1033057225606768e-06,3.077228353593899e-07,-0.0002860856879256955,-0.0002284744158569686,0.00046601685716879854,-6.651840885350996e-05,-0.00010690414431380191,-7.184027921774394e-06,0.049883365631103516
1763290172.8820264,-0.0026164154453002368,-0.002581817627592995,0.005301754675353459,-1.782951961590967e-05,-2.2658293157951093e-05,-1.3410407934331045e-06,-0.0011574340505638675,-0.0011092974036870918,0.0020050979261383725,1.7455238958561324e-05,-0.00039569418114782096,-3.4219228626336013e-06,0.05459713935852051
1763290172.9319115,-0.0032945188471874597,-0.0025065274093527515,0.006446411742304483,-1.0066939488827893e-05,-0.00010472619481172174,-1.797705498443191e-06,-0.0027643344370246216,-0.0027818108656159414,0.005088376481696847,0.0003263365092240166,-0.0006755429952964853,-1.6084455651234192e-05,0.045538902282714844
1763290172.9859924,-0.0031440974518226112,0.00016643040298430951,0.0041003843243349455,6.394111484615967e-05,-0.0002303063027644381,-4.924314597429462e-06,-0.005013261063609956,-0.004713806290597767,0.009522059996603308,0.0002919426927460708,-0.0008326369034206138,7.82697614776272e-05,0.04988503456115723
1763290173.0321758,-0.0036228213957308383,0.0010485185136880244,0.004769941259717558,0.00011410575650125969,-0.00036281740713794974,1.3390163417357534e-05,-0.006817816528225856,-0.00510822427904118,0.012714765031293165,-0.00042898528055448356,-0.0007455594496748041,7.638870707183438e-05,0.054080963134765625
1763290173.0820034,-0.004789918533033942,0.0009497034969276098,0.006903035708043662,-5.37219419784064e-06,-0.0004470235911357978,2.7232007160219604e-05,-0.007902146089786793,-0.003540501339047952,0.013862789786807375,-0.0008094878844538599,-0.0003312590024180384,-0.00010486150861089015,0.04618334770202637
1763290173.1358128,-0.0055289729412609685,0.0016773762819887704,0.008354285960127687,-0.00018227633719031025,-0.00042154626868939893,-1.8205792027385714e-06,-0.008293618058029159,0.00016262458175803987,0.01284128775441439,-0.0010801853066980172,-0.00019865781209116307,0.00011383007795073246,0.04982757568359375
1763290173.1821349,-0.0061785145076458945,0.004148148513008901,0.008849819764540436,-0.000379818528108582,-0.00037251971949525675,2.363973686169102e-05,-0.00815610714193515,0.004568248889774266,0.010941399002199809,-0.0015450141776013502,-0.00013753567732965877,-0.00010630042901146178,0.053809404373168945
1763290173.2320838,-0.006565768128612209,0.007126280551776739,0.008644227308970952,-0.0006361589580555844,-0.000320810242194991,-4.923606754524609e-06,-0.007449386290976402,0.009642338976747144,0.00837104938664869,-0.0019678864554444893,6.52805806811152e-05,7.371815707173294e-05,0.04632210731506348
1763290173.285994,-0.006406193127967591,0.011005558420927824,0.006786074536969793,-0.0009291416213647189,-0.00023587925244750174,1.2421696287665381e-05,-0.006512213360917199,0.015210075160499286,0.005559653297754981,-0.0022332468189561186,4.634553509275108e-05,-9.64277416969553e-06,0.049948930740356445
1763290173.3319678,-0.005941845630558488,0.015839505265595886,0.004299540529065349,-0.0012160442351973443,-0.00017378733419048942,7.599091769742313e-06,-0.00552242517579538,0.020129747639264315,0.0029899132683966173,-0.0021680397387186896,0.0002364555628673326,-0.00010273344951623605,0.053910255432128906
1763290173.382032,-0.0054074165849266834,0.02041384649938394,0.0022617714648335992,-0.0014254793638177046,-8.352488775908995e-05,-1.6640557549541617e-05,-0.004531121804179909,0.025419937097212606,0.00012985103123865625,-0.002299595003791118,0.00026446474074881543,7.109683656331013e-05,0.045973777770996094
1763290173.4320738,-0.004790112774264517,0.025718845927084396,5.66404002448435e-05,-0.001617787423512359,-6.973751865757549e-06,2.687767468523275e-06,-0.0035645268704424453,0.03048875492080878,-0.00279575262734788,-0.0022912384488039676,0.00031638302587766454,-2.988567834628763e-05,0.0500640869140625
1763290173.4825444,-0.003602884279339074,0.030709402432874785,-0.0027810412447792656,-0.001765945743589948,6.416662022279418e-05,-4.459706173970377e-06,-0.002805430729781496,0.0358887314634897,-0.005850952566815218,-0.002554564844749709,0.00024677423051100433,0.00016381525753752618,0.050041913986206055
1763290173.5321517,-0.0027444911924302266,0.035973632932171415,-0.0056594322564113364,-0.0019394445806538377,0.00010432890745915024,3.257314055816946e-05,-0.0020092685016500226,0.0411794499664541,-0.00857450185152747,-0.0025538423344515218,0.0004185850364035737,-9.574754532271718e-05,0.050470590591430664
1763290173.5821502,-0.0020561385251469414,0.0412618136896495,-0.008355212028435489,-0.002074608623115372,0.00017347201930228984,4.359156869008173e-06,-0.0011807935087845183,0.046534689548306044,-0.011319394672056038,-0.0026684603753332386,0.0003962141234445937,0.00012045576973478386,0.049607276916503906
1763290173.6320505,-0.0014152575406289594,0.04671695477460773,-0.01084126451215113,-0.002205258224532504,0.0002224693661503352,2.9911760094915366e-05,-0.000352563976473885,0.051791726403364165,-0.013978332743603133,-0.0026274871737722626,0.0003545927993831022,7.854022315977007e-05,0.04999852180480957
1763290173.6820805,-0.0005571449116145252,0.0521776802155809,-0.013032984150718659,-0.0022981491433558226,0.00025153475959527327,4.061480822229959e-05,0.0004330807153074105,0.057343025513912536,-0.016583985996213968,-0.002949821047273502,0.00037150629255777723,0.00018182962307517695,0.04990029335021973
1763290173.7320287,0.00013444259107425575,0.05775819121413598,-0.015121175763961554,-0.0024415184137772197,0.00027792060061293533,7.168877461198238e-05,0.0011268407441119767,0.06290307311726115,-0.018863843215426192,-0.003101567045631722,0.0004491171463119059,-2.3022850805568258e-05,0.05002999305725098
1763290173.7820723,0.0013920193961419552,0.0627883391108847,-0.018142894410884198,-0.002586727718335817,0.00031558920378182975,5.086191304470888e-05,0.0017381366825935328,0.06861775116074438,-0.020710602452233974,-0.003242603357112558,0.00040273263625545397,0.00012484250561822528,0.04994821548461914
1763290173.8321517,0.0023649279526551516,0.06678828960247626,-0.021701533720192793,-0.002731020910302528,0.000334756595428809,6.714254688750893e-05,0.0024441597345634474,0.07418873397102511,-0.02235957858075491,-0.00310613090283213,0.00042810220744038396,6.661532500704886e-05,0.050043582916259766
1763290173.8820894,0.0033567963740069057,0.07045625780037099,-0.024788251344530828,-0.0028135451033429195,0.0003552926469345685,6.702956235213735e-05,0.003517813663917506,0.07919556335946011,-0.024513119117763934,-0.0028943258779295477,0.0006372994902437146,4.18615363610621e-05,0.050079345703125
1763290173.9320912,0.004170580884178982,0.07286902926119412,-0.027493431033234872,-0.002831316263914084,0.0004173343268856211,6.149455149250191e-05,0.004835935786024375,0.08294957618427602,-0.027579917915872536,-0.0025829137712651304,0.0007841335472469346,0.00016685251445548198,0.04993772506713867
1763290173.9825215,0.005243429149023174,0.075367431970599,-0.030010211533573524,-0.0027766710354746264,0.0004980324006380599,8.466548395890243e-05,0.006299601196995329,0.08446194395923726,-0.03155755572783063,-0.001531291421404187,0.0008651079864163691,0.00014763556352008996,0.05000185966491699
1763290174.032106,0.006308802026121662,0.07663378950349997,-0.032362650048533934,-0.0025026895277134673,0.0005787957535148269,9.847967611976454e-05,0.007730513017610187,0.08383754392029573,-0.036146627901984,-0.00036675320947072044,0.0008605789875906211,0.00014937557431340696,0.0504302978515625
1763290174.082211,0.007369118045384369,0.07690700908864634,-0.035377324069335706,-0.0020327848027050428,0.0006407973820610202,0.00010962513049246263,0.00911636297184838,0.08132746819011144,-0.04060046602235088,0.000566120823838893,0.0008373306784439372,2.5639730747375857e-07,0.049584388732910156
1763290174.13207,0.008580290930618904,0.0758972005287515,-0.03905483431826634,-0.0014610237516539779,0.0006840103089134075,8.55201921941846e-05,0.010335946920029359,0.07751062685938896,-0.04443582835257861,0.0011584399194330271,0.0008026706087478352,3.503639504026562e-05,0.05010509490966797
1763290174.1821074,0.009599934126773922,0.07354762931761137,-0.04262370328807225,-0.0008847412493211597,0.0007101042221240306,7.438709105520806e-05,0.011265191205373113,0.07301300872331046,-0.04776468255030856,0.0011647029045607305,0.000614891453262878,-0.00014016128662578152,0.049859046936035156
1763290174.2322223,0.010464062046169342,0.07025809387701204,-0.04620086325102803,-0.0004338652775294998,0.0006891196895359997,2.720319642705647e-05,0.012169619313054918,0.0677428343653556,-0.0505069337647997,0.0015571978816447843,0.0006770947553507156,-0.0001611490406613818,0.050037384033203125
1763290174.2824218,0.011343287162690556,0.06606666047767884,-0.04939025973561869,4.1684240046894814e-06,0.0006864420275869421,-1.4232235627652247e-05,0.012704735396112976,0.06202509963929397,-0.052946979195372536,0.0023251450188705495,0.0004043785038176928,-0.00012758380058331203,0.05011487007141113
1763290174.332147,0.012269130191921338,0.061121346350091484,-0.0520411593859593,0.0005147805650045204,0.0006243654917488239,-3.9113406582063525e-05,0.013161650575441957,0.05647008945140722,-0.05527157203726166,0.002326384259788938,0.0004454587386908404,-0.00039974019343217587,0.05019950866699219
1763290174.3822935,0.01300050311804287,0.05593796996088415,-0.05454927153803035,0.0009133278560848877,0.0005849499567291971,-0.00011842348487414801,0.01348616490210414,0.0508472284214385,-0.0575118034104937,0.002446362412275063,0.00034668815699023803,-0.00030919083944728034,0.04972505569458008
1763290174.4366667,0.013549727678597287,0.05047348264301631,-0.05676134163834785,0.001250591574162571,0.0005325072728790126,-0.00016036096166014197,0.01395491594882591,0.044694137316758566,-0.059765093441229836,0.0026093445386882307,0.00035021819718283886,-0.00015040156813965385,0.05014657974243164
1763290174.48258,0.014067282970143131,0.04438108185002255,-0.05887065438452826,0.0015495173922287463,0.0004924048399972403,-0.0001581486437121528,0.014484578017288384,0.03932150439519447,-0.061541657536781855,0.003000497113007422,0.0005195036758394167,-0.0003074557894794553,0.05437326431274414
1763290174.5320733,0.014580077422706889,0.03914843744593516,-0.060655667420458796,0.001868733276003587,0.0004983479955698034,-0.00019099958673456628,0.015004529393990648,0.03354111721033594,-0.06328832314663617,0.003145307879885806,0.00046388587613432897,-0.0003358595908020444,0.0459132194519043
1763290174.5866776,0.015135258933614634,0.033458246150886856,-0.06255348372364693,0.0021495792621550446,0.0004907504632201132,-0.00022286501130793068,0.015585877546140828,0.027365829809572948,-0.06486859100333746,0.0030481239927225233,0.0003464894524258799,-0.0002565925712822672,0.04949331283569336
1763290174.632238,0.015897295616487304,0.027311473281488884,-0.06463447223566211,0.002347258690360992,0.00045901044154872395,-0.00023027395264640154,0.016203390157110274,0.0217268043213029,-0.0661387321163757,0.003707920066813749,0.0005030944102406565,-0.00038806914527834215,0.054604291915893555
1763290174.6821427,0.016508655010933078,0.021978208933353553,-0.06624107583030356,0.0026466047873223296,0.000468690492240631,-0.0002649940389763198,0.016912348589928336,0.016065453364331076,-0.06748982504997156,0.003341193466123875,0.0005997730383606736,-0.0005097345951046058,0.045560359954833984
1763290174.7384717,0.01720897881786446,0.01622867241486873,-0.06782228067691497,0.0027994170449123913,0.0004975140663328048,-0.00031884477093426807,0.017787091041468757,0.009628076171588616,-0.0691691370327106,0.0033590268536745063,0.0005633910551139376,-0.0003748895299985004,0.049904823303222656
1763290174.807198,0.018008184301130086,0.00974361574612124,-0.06951330186424845,0.00292253151796589,0.0005120043127360141,-0.00033117778067624575,0.019029751223458416,0.001682126580853457,-0.07147781409884403,0.0036235918448287545,0.00063995252014859,-0.00037905963273487855,0.05632901191711426
1763290174.857171,0.01919229674842451,0.001864977299207389,-0.07180417871319762,0.003076765311258875,0.000540150037721121,-0.0003417194838612303,0.01994407698619582,-0.003998833704158146,-0.07323990975146355,0.0036348692944635805,0.0006418385059481224,-0.0003967818934836836,0.0687263011932373
1763290174.9072962,0.019969336960256528,-0.003856003104452895,-0.0735390158961237,0.003199548665177568,0.0005625188637941037,-0.0003538380829518455,0.02090731395100883,-0.009529774055260211,-0.07502057820286577,0.0034080776425427983,0.0007717951450336713,-0.0005128240666245406,0.0499730110168457
1763290174.9573145,0.020770834338239133,-0.009484754933642056,-0.07536398625694944,0.003245427892541705,0.0006085568010090192,-0.00038881874183865835,0.021843262518652956,-0.015547189497931442,-0.07681970462723536,0.004303710679841166,0.0008087717782698789,-0.0005907558914804818,0.0501251220703125
1763290175.0072246,0.021652896769995208,-0.015250334332714596,-0.07724873157073565,0.0034782535621664824,0.0006525857581227701,-0.0004332630902772065,0.022631314329522395,-0.020884399837648806,-0.07869200643092861,0.0035900223868017755,0.0005909644405950321,-0.0005997604691921782,0.050018310546875
1763290175.0573514,0.02247057583437976,-0.020801463100091653,-0.07916839879646005,0.003502841823645692,0.0006390274716161493,-0.00046989192324524306,0.023480278231237814,-0.02656820615858654,-0.08068067808485445,0.0037654063895998843,0.0007395309486748491,-0.0005846613030024674,0.04991006851196289
1763290175.107252,0.02311630148870735,-0.026453979105096774,-0.08109811933280439,0.003560607016289151,0.0006611356509744759,-0.000495143450211717,0.024236889108275712,-0.032100984048309536,-0.0827670572925927,0.0037090836980635416,0.0007405259650019591,-0.0007428644864476562,0.05012679100036621
1763290175.1572695,0.02368841962066076,-0.032092425597213294,-0.0829666738888979,0.0035932735729118023,0.0006785983642159099,-0.0005496430883595735,0.024873774677225183,-0.037664357973665546,-0.08494331232595431,0.003802239812932724,0.0006275374864281869,-0.0005669882954352388,0.04990053176879883
1763290175.2071562,0.024143991788966066,-0.037715655036540514,-0.0849438304530092,0.0036392460703327306,0.000667364660133174,-0.0005534581184743317,0.025413518190611172,-0.043238825798767935,-0.08712744211182957,0.0038373111247096857,0.0007064858697816145,-0.000778248759574363,0.050017595291137695
1763290175.257252,0.024587514347179,-0.04332005523382802,-0.08697353995968217,0.0036828211362961234,0.0006759675061405179,-0.0006029127237582503,0.025451726759232685,-0.046612847641017016,-0.0886138085482913,0.002221699943715713,0.0002123388832346862,-0.00040822213828159366,0.04988670349121094
1763290175.311744,0.02473048009753289,-0.04794303791633788,-0.08871365188083818,0.003361382188188812,0.000573944809940441,-0.000560138916613758,0.02540514660800682,-0.04518059097447797,-0.0885180309005086,-0.0011000428922799857,7.019264547691861e-05,-2.1369349293472928e-05,0.05009579658508301
1763290175.3571746,0.02466989041534919,-0.05010874671833905,-0.08971281613318575,0.002379891887265023,0.00046291317942470656,-0.00044180251949206914,0.02543335060577065,-0.045421995170930214,-0.08847343780479279,-0.0002826505731954831,0.00016859925965628797,-3.305163441015693e-05,0.05449199676513672
1763290175.407244,0.02452836052572597,-0.0508905685392616,-0.08978609741492433,0.0017941428464294587,0.0003980707566089148,-0.00035194457904362363,0.025463872966145447,-0.04545527772287269,-0.08838962649188184,0.00018452655018717386,0.00027580999426080055,-5.8183502917815095e-05,0.045430660247802734
1763290175.4611125,0.02440999131235483,-0.051624397322174116,-0.089877942628903,0.0014400303378381354,0.0003711328216176035,-0.0002873340321157608,0.02543674663962154,-0.045111544129721536,-0.08833015153068668,-0.00031032394767660374,0.00023594221434164453,-1.1469774765109778e-05,0.050069332122802734
1763290175.5072424,0.02429199846822731,-0.05211490730197593,-0.08995515006488408,0.0010549555892620224,0.00034134946201214156,-0.00022666420419571273,0.025400755166580368,-0.04499167327943098,-0.08829289739011224,-0.0004867812152392926,0.00017747676119750366,1.3850016188605245e-06,0.05386853218078613
1763290175.5572975,0.024394796211744254,-0.05185311333375972,-0.08987599572787693,0.000715776693061681,0.00030526730443924954,-0.0001765150595767308,0.025392078425241525,-0.04494581922029802,-0.08826753262691639,-0.0005250406761819464,0.0001630953173135108,3.058559455191224e-06,0.04612994194030762
1763290175.6109295,0.024638816366713095,-0.051988105989239926,-0.08974651453402699,0.0004427990587049036,0.0002739703512713021,-0.00013702400096607856,0.025365167466118534,-0.044763151374554735,-0.08823358159570978,-0.0008717019208175522,0.00010646235265410198,4.1086614039509885e-05,0.05005502700805664
1763290175.6572776,0.024840419238070795,-0.051823587584855293,-0.08973985314987071,0.00015361139919817604,0.00023709850587527725,-9.785855981632028e-05,0.02535523483030416,-0.04470066056154001,-0.0882278017815906,-0.0009864694094800022,8.834018971848323e-05,5.293583538711402e-05,0.05363202095031738
1763290175.7073896,0.02529907236695576,-0.050064720139583734,-0.08990037412667846,-9.720445661668744e-05,0.0002043569273493251,-6.469834545487992e-05,0.0253447160966918,-0.04462004410158978,-0.08823219044335143,-0.0011265533981539362,7.127602068091043e-05,7.049136990644124e-05,0.04634809494018555
1763290175.7614484,0.025895401370887215,-0.04686632315779809,-0.09045671713041198,-0.00032365968187375647,0.00017506718932658316,-3.496836242976307e-05,0.02533876607653118,-0.044566159802553046,-0.08823061055336165,-0.001222268241524656,6.100940484965456e-05,8.220892864981233e-05,0.050112009048461914
1763290175.807418,0.026275657320777107,-0.044215664770253876,-0.09083918252265377,-0.000521352419407985,0.00014996544305057036,-9.19815291566024e-06,0.025328349655495845,-0.04454468289768133,-0.08823006286195857,-0.0012609917428184883,4.209696321422207e-05,8.718910017417364e-05,0.05405879020690918
1763290175.8573997,0.026316633318989764,-0.04213574885807942,-0.09084410012264789,-0.0006840721792233386,0.0001262282611305121,1.2000196997945719e-05,0.0253233884428112,-0.044529653566486874,-0.08822579145924644,-0.0012897391008588885,3.250553048905758e-05,9.133204836208495e-05,0.04596972465515137
1763290175.9112303,0.02620407817793487,-0.04013461835162655,-0.09080326473589895,-0.0008173182644844368,0.00010560513809276806,2.9448333710536807e-05,0.02532324560630816,-0.04451770832381379,-0.08822202155820215,-0.0013127650881739833,3.18360990194666e-05,9.430438261423417e-05,0.04998159408569336
1763290175.9577801,0.026126914495439694,-0.038813281826043204,-0.09093476559355243,-0.0009263161554393251,8.937319265656107e-05,4.3713528502724975e-05,0.025318391761512973,-0.04450914296535763,-0.08821954643679751,-0.0013292620459647716,2.224634812719728e-05,9.710222592478012e-05,0.053830623626708984
1763290176.0079317,0.026079454255552057,-0.038500776033735334,-0.09074709656876372,-0.0010149639440130197,7.460344115450823e-05,5.545672112705092e-05,0.025319435498873027,-0.04449249501800781,-0.08821959087547754,-0.001355379396046591,2.3439699276206483e-05,0.00010104124789029696,0.04654979705810547
1763290176.0572736,0.026039828719802892,-0.03804981023863065,-0.0905893007113544,-0.001089855143433079,6.334608657287966e-05,6.548382261192885e-05,0.02591994267837626,-0.03922389470247386,-0.09007916967610681,-0.004523463171206269,0.0003232503021834976,0.0004421925067980348,0.05015158653259277
1763290176.1074328,0.026283360893220965,-0.035481788540531786,-0.09132373718807546,-0.0018452572950854002,0.00012041400943485492,0.0001484362650748663,0.02671011539809038,-0.0337092900618032,-0.09229274316923729,-0.004677846992768618,0.0006120944400125339,0.0005035770272678776,0.04934191703796387
1763290176.157267,0.026670166111815757,-0.031493973342659964,-0.09262246788454673,-0.0024684419749594895,0.00022849736001151477,0.0002266867019864659,0.02717199712984086,-0.0276325120316058,-0.09431372119037074,-0.005656907950155176,0.00023071830172582963,0.0007601804532972341,0.05015921592712402
1763290176.2073772,0.026886204030451763,-0.026498489290903614,-0.09383562761476709,-0.0031699045837669765,0.00022884001889611483,0.0003440558914044539,0.027834900629900287,-0.022329632650984487,-0.09618795589719391,-0.004769028070249492,0.0004583661377910442,0.0007825571110403312,0.049834251403808594
1763290176.2574413,0.027217659035871408,-0.02131877881077167,-0.09501376615781594,-0.003521720374417159,0.0002792755955312032,0.0004405576402349675,0.028231899443818254,-0.016259914600627236,-0.09792058721744704,-0.005266650632675188,0.0004228217396666789,0.0007785617896654663,0.0501101016998291
1763290176.307408,0.02737902545611026,-0.015756597298349058,-0.09613446293312213,-0.003905609185618991,0.00031080513931391884,0.0005149400345342739,0.028425842285496175,-0.01002304788343572,-0.09918977735026946,-0.006157553728713471,0.0003192490462009534,0.0007680421909726303,0.0500640869140625
1763290176.3574443,0.02752517489522666,-0.009921093194783242,-0.09709426105701556,-0.0044010371668056734,0.00031261389488146385,0.0005706241301201871,0.02831270507163891,-0.004246507493691772,-0.09992637580616565,-0.0056994454570869066,4.568825308459701e-05,0.0010476956431227458,0.04996681213378906
1763290176.4075994,0.027461463286616628,-0.004128914299510026,-0.09787643848860143,-0.004686676069113699,0.0002538371103719683,0.0006755501226081028,0.028199836810317545,0.001718556603909658,-0.10008923041145477,-0.0057025096515997305,0.00028172829464878646,0.0008540914988258788,0.05003619194030762
1763290176.4573264,0.027139275077943698,0.0016833711279044834,-0.09823101913179086,-0.00491015988362429,0.0002599576092732203,0.0007148316547430006,0.027633005385050115,0.007678683620421338,-0.09988353938408415,-0.0056958475276839655,8.796647155806525e-06,0.0008434805635994405,0.0501551628112793
1763290176.5077412,0.0266024063967771,0.0075007196745539495,-0.0982933168681452,-0.005083008395948367,0.0002046935264019556,0.0007431174832947183,0.026795731173949035,0.013747547498980788,-0.09917436624955556,-0.005996104795190027,-0.00044112117984052013,0.0009689625631598918,0.04972696304321289
1763290176.5573182,0.02554653046849415,0.013422540418254737,-0.09839225663740517,-0.005283877089246874,6.25966020719737e-05,0.0007927528038904342,0.025798480227325553,0.01951806843175343,-0.0982677344248726,-0.0057728611858179875,-0.0006502472335736531,0.0008290712881509012,0.0504148006439209
1763290176.6074243,0.024517987905608156,0.019230154542402775,-0.09823325189633027,-0.005391451364368201,-9.423056413360165e-05,0.0008007129627547893,0.024517542304471566,0.025139132352072612,-0.09724780610922439,-0.005443681887677445,-0.0007777110543332189,0.000654065335456507,0.04957699775695801
1763290176.657525,0.0232082789648454,0.02492537610049022,-0.09773472786075643,-0.005402950678344957,-0.00024459561466128044,0.0007684474244692804,0.022760998001641476,0.03096919425553412,-0.09647500471740099,-0.005718556282251261,-0.001161148961597469,0.0004322093818001878,0.050106048583984375
1763290176.7077196,0.021593046177511482,0.03063416933045343,-0.0971784319918768,-0.0054724103395762305,-0.00044622824445261777,0.000694450250096373,0.020827390034797888,0.03651342421882175,-0.09590085143995619,-0.005421561824534239,-0.0012837063218931188,0.0003792096203008739,0.05010080337524414
1763290176.765398,0.019426083858913725,0.03604442062227653,-0.096707187827154,-0.005461246320712014,-0.0006304747961376478,0.0006251009813521568,0.01815784679340729,0.04289178318709996,-0.0955454254003873,-0.005219897416606748,-0.0016681416073485167,0.00031539046725975305,0.050194501876831055
1763290176.8076062,0.015528925478761033,0.04095238326958465,-0.09648378200029953,-0.005408177156627358,-0.0008587679067213472,0.0005569861824852609,0.016028182795614417,0.047556102333396216,-0.09543924151408366,-0.005501364768672754,-0.0018137838843492737,0.00019887170673087192,0.0576784610748291
1763290176.8574166,0.013033030453929235,0.04443081978030173,-0.09633325758529257,-0.005428707766389502,-0.0010688685574520296,0.0004781933959926856,0.012773470087872097,0.05228104875306329,-0.09548400821537004,-0.004701096033521714,-0.0023528697505750262,8.897608608533535e-05,0.042208194732666016
1763290176.907528,0.00977629611341873,0.047237491408496673,-0.09660026444750741,-0.005268676183034939,-0.0013513731113774519,0.00039264581164555047,0.008500127432916376,0.05599155124083448,-0.09574160442800575,-0.00405813419359004,-0.003051969356172135,-0.00024215895043556404,0.04981040954589844
1763290176.95736,0.006235427120262857,0.05015096940665511,-0.097255737376712,-0.0050024499073365244,-0.0017255701932819,0.0002531655778309841,0.0036793935324177184,0.05788795602551883,-0.09623988710481023,-0.0028647837470232346,-0.0032061388714761385,-0.00014647582498484224,0.05011129379272461
1763290177.0075388,0.0023613474337348646,0.052214138426581395,-0.09797566829972239,-0.004532214717076245,-0.0020513685450957997,0.00016551614929758714,-0.002014552064330609,0.058339039744859426,-0.09710008383079796,-0.002186333529953104,-0.00398040054519222,-0.00021604594890208364,0.04983210563659668
1763290177.0614498,-0.0017629687840657856,0.052761167784634536,-0.09878283358469095,-0.004016185042767821,-0.0024758322969873348,8.19609424939052e-05,-0.007814602495687592,0.05698974742143739,-0.09862476065671807,-0.0008284375924996071,-0.004010367285218974,-0.0007144192420188031,0.05017876625061035
1763290177.1074452,-0.006464480404538544,0.05201524687063614,-0.1000272327466038,-0.003314986715368328,-0.002813647677436748,-9.282261276514639e-05,-0.012440059434577736,0.05524101475616111,-0.10032991332699867,-0.0007198029815081715,-0.003913771328875937,-5.770182191665454e-05,0.05391097068786621
1763290177.1574185,-0.010800699046047732,0.0511979238062851,-0.10132713832735607,-0.002744043752525266,-0.003055667001222284,-8.485108899746043e-05,-0.01678643416511461,0.05204574222251299,-0.10234132707541939,2.764102370318053e-06,-0.0034143687129779554,-4.756366097318833e-05,0.045995473861694336
1763290177.2114089,-0.015611102745213773,0.04942163235768356,-0.10310309461239794,-0.002139745144705785,-0.003134572568421534,-7.656332287045408e-05,-0.02092852822695447,0.047863847850549784,-0.10459554556428723,0.0005239097469367374,-0.0031748669876994207,0.00017315650270063236,0.049973249435424805
1763290177.2573829,-0.020240144479056713,0.04633572020266018,-0.10519215301628257,-0.0015537402354613072,-0.003143380267266016,-2.1615769149059265e-05,-0.024468659914283805,0.04382999312438339,-0.10672197566000552,0.0009270591440884479,-0.003364834495582336,0.0004590645500228904,0.05399036407470703
1763290177.3079662,-0.023550700712131042,0.04353363644139051,-0.1068691612139272,-0.0010079553945695678,-0.003191997872661778,8.418098540036632e-05,-0.027855083021281528,0.03972749461264003,-0.10903917873442992,0.0009075398179551735,-0.0027826603502818514,0.0004030354282710888,0.045974016189575195
1763290177.3613741,-0.02618148215608838,0.04087293836905658,-0.1085166620321909,-0.0005865574418260759,-0.0031018912267590792,0.0001542617130372085,-0.031895850013209506,0.035254195214666294,-0.11149672276161206,0.0012691025883916495,-0.0031180654990647927,0.0005193683706301455,0.0505833625793457
1763290177.407629,-0.028775342121754744,0.03786077194974572,-0.11021166672428424,-0.000178311738448648,-0.003105391435794802,0.00023458774128115616,-0.03452465528486416,0.03205678591208935,-0.11338425726584163,0.001204530879135416,-0.002693219553253856,0.0004272444945709058,0.053407907485961914
1763290177.4575267,-0.030790743064748202,0.03516119361242255,-0.1116633898670155,0.00012590696935449802,-0.003014690769844508,0.0002769233407830148,-0.03639771347101653,0.02966621709018838,-0.11500143703577603,0.0005160901146681721,-0.002005691241685037,0.00044465892809456383,0.046254873275756836
1763290177.511446,-0.03261621181329248,0.03274342675407043,-0.1130734376948798,0.0002117328311013466,-0.002792705259719419,0.00031379142984367243,-0.03718518674764465,0.027977467472814807,-0.11615563055521753,0.00010319328261027273,-0.0012362283727136436,0.00042177033767897785,0.04989767074584961
1763290177.5825496,-0.033842362789224645,0.03085226749271772,-0.11429943119081598,0.00018783967686785322,-0.0024502813504430065,0.0003375613178316509,-0.03660430201853652,0.027110742708657126,-0.11679541605531243,-0.0004961279296294443,-0.00034054961414264895,0.00018952079413396813,0.053919315338134766
1763290177.6324072,-0.03396082080236801,0.029815111895415906,-0.11541296736539898,3.739337964309781e-05,-0.0019861316890654734,0.00030511616386307027,-0.03560117674487883,0.026901778428394533,-0.11685076100543036,-0.0005613340325125925,-5.5915082192825594e-05,0.00010258451049406028,0.07110357284545898
1763290177.6825702,-0.03396701023730256,0.029092577392739977,-0.11600365366916157,-9.429324596998125e-05,-0.0015614736375175742,0.0002606583112918472,-0.03431454109317832,0.027057860608269778,-0.11671462310504778,-0.0007111172577326605,0.00021186183765808941,0.00018708787391550223,0.04985761642456055
1763290177.7326787,-0.033351536318186444,0.029058666055253434,-0.11630169528454584,-0.00022998342901841174,-0.0011713359448546345,0.0002445666552235507,-0.032857178876081895,0.02749698009501955,-0.11665447377787432,-0.0005564268784025902,0.000463369565970595,7.894515728611947e-05,0.05016303062438965
1763290177.782775,-0.03236516169438505,0.02926105914267049,-0.1162613576014632,-0.00030177778828587156,-0.0008116960953601371,0.00020817569674230624,-0.031403632707038893,0.028583624088373956,-0.11653894250507708,-0.0010234477214716335,0.0006423214445268055,-3.518504188124031e-05,0.05010843276977539
1763290177.832558,-0.031222216290491017,0.02998600012124422,-0.1160358085155955,-0.000460514844903196,-0.0004917971746176697,0.00015472635618254125,-0.029940630239993334,0.029977987272167488,-0.1164275584057674,-0.0014911516700317666,0.0007708894513376308,-0.00010446333080713191,0.05009627342224121
1763290177.8825681,-0.029962335798704453,0.031168758801647156,-0.11572119586424796,-0.000687226876386248,-0.00021398320853749375,9.78162822170376e-05,-0.028472945505944036,0.03148873966689561,-0.11616060637434865,-0.0015613927719768208,0.0009758757195790224,-0.00016982528533464805,0.04978299140930176
1763290177.9365327,-0.02844591016942197,0.03261061715039215,-0.115361284966359,-0.0008795160352379627,4.7805821718149843e-05,3.9024386842105737e-05,-0.02696240108943498,0.033503150495368186,-0.11567061907231457,-0.0019010188868221487,0.0010960311367527176,-0.00021964651589931127,0.05001020431518555
1763290177.9829662,-0.02692153109531523,0.03439836192844756,-0.11490343646164496,-0.0011042233631951865,0.0002784380528966235,-1.7791329189825812e-05,-0.025696595241201735,0.03541117727567899,-0.11506381815132871,-0.0021532145599226825,0.0011416228918781357,-5.0302420130359634e-05,0.05396461486816406
1763290178.032414,-0.025587859410179326,0.036292513405167474,-0.11435130753971694,-0.0013349989760094516,0.00046834163596809475,-2.4866077969123967e-05,-0.02423026909776576,0.03767521490299752,-0.11421851235061807,-0.002424478776923736,0.0012941147078577853,-8.616491660141603e-05,0.046433448791503906
1763290178.0862637,-0.024168466496725004,0.03859758970151387,-0.11369632118283872,-0.0015746801329476266,0.000650017433961203,-3.8274627616931326e-05,-0.022664150022261773,0.04017085144389339,-0.11319025999192685,-0.0024742889336757646,0.0013841941108301281,-3.926136930286898e-05,0.04944777488708496
1763290178.1326616,-0.02270837339702327,0.04114550032265564,-0.11271185478153734,-0.0017725939570789517,0.0008115363742773329,-3.843504222656444e-05,-0.021205210705021904,0.04268632507421506,-0.11219292882871497,-0.002698712985396145,0.001555536088161169,-0.00024651142831659973,0.05384969711303711
1763290178.1825173,-0.021471383939078666,0.04315577359912848,-0.11193711267363204,-0.0019763267986276875,0.0009752328399110777,-8.415271286107574e-05,-0.01977625239648709,0.04560394416706736,-0.11107005806324013,-0.0029289901979671507,0.0014603160162582896,-0.0001188140979241794,0.04639792442321777
1763290178.2363477,-0.019982896639224063,0.04568691313802091,-0.11084918730415895,-0.002185911259165958,0.0010819539683453172,-9.173856569228157e-05,-0.018398335412244123,0.048602650488962174,-0.10982956559568713,-0.002760402912200618,0.001304435391499048,-0.00014198921182861408,0.049855709075927734
1763290178.2828639,-0.01856833223365339,0.04881187049379582,-0.10969608419071444,-0.002312298450961679,0.0011309023577688038,-0.00010278274018044193,-0.01714889718322621,0.05120179738939809,-0.10876690788990537,-0.0026605456144198495,0.001305894542711794,-2.949156408009716e-05,0.05383038520812988
1763290178.332552,-0.017283065517607072,0.05141102527522287,-0.10875046673115048,-0.00238891392112636,0.0011693984483689412,-8.665345411309385e-05,-0.01587924243396921,0.0540682738984092,-0.10754928647426008,-0.0028097597315425637,0.0013147574559098096,1.72839119047541e-05,0.04651618003845215
1763290178.3861713,-0.0157055253966124,0.054178809483401626,-0.10768363527116193,-0.002481501289292089,0.0012013736767824135,-6.378198660167346e-05,-0.014554032388986504,0.05709025307166476,-0.10631431836303108,-0.0027806334277861167,0.0013357630872450343,-6.581219329556984e-05,0.049688100814819336
1763290178.4325159,-0.014034433839720866,0.05740852357275744,-0.10658382752697616,-0.002547310332062228,0.001230939399094133,-6.422518286469661e-05,-0.013292177557714032,0.05984657124617374,-0.10526821811552971,-0.00282921582256858,0.0014171671809801722,-1.7294660614176175e-06,0.053619384765625
1763290178.4830596,-0.012354915008012566,0.06012454676377885,-0.10559586652447946,-0.002609330532736251,0.001271907999371491,-5.047162210872869e-05,-0.011723461552263136,0.06280865479364403,-0.10424282214096432,-0.002835369996783498,0.0015831263676577834,-0.00016242553917718286,0.04634451866149902
1763290178.5366693,-0.010444472121837798,0.06314948851757905,-0.10470830949462977,-0.0026590562170820922,0.0013403782114886909,-7.509544389175822e-05,-0.009701850710766359,0.06616207869588499,-0.10324146798344391,-0.0029397264126894283,0.001738222808018941,-4.248234658730338e-05,0.050543785095214844
1763290178.5825062,-0.008093971743003081,0.06630913181407752,-0.10429901039204932,-0.0027208047593286523,0.0014279032370996259,-6.791098343074263e-05,-0.0077169519470134205,0.06903132637252901,-0.10249736624012526,-0.0028696309601309723,0.0017106577442289606,0.00028721308368820147,0.053609609603881836
1763290178.6326752,-0.006274302732866508,0.06878097774060879,-0.10381401106560105,-0.0027535551333185584,0.0014901046936566242,1.021990878513133e-05,-0.004858449478590007,0.07221229179715644,-0.10193850004384701,-0.0028823380553983516,0.002243617444669832,7.726165235450243e-05,0.0458369255065918
1763290178.6827154,-0.0043657081927675305,0.07124155046224158,-0.10324695140584778,-0.002781891696147263,0.0016558767579708533,2.497741088645178e-05,-0.0018257750908832007,0.07537311736063411,-0.10182465500019997,-0.00313637140140596,0.002437755745072989,0.0001730399919121871,0.05016899108886719
1763290178.7326124,-0.001992521399832951,0.07372075286401315,-0.10294228386025123,-0.0028598871188660535,0.0018278856309910108,5.757494007026472e-05,0.0011723478713178785,0.07783446491974903,-0.10204950913837182,-0.0024865958941835092,0.002405862970041639,0.00023206122092503894,0.050040245056152344
1763290178.7826147,0.0003732990896721291,0.07549081601927472,-0.10234010768798248,-0.002777771739587839,0.0019550462332973417,9.594339256248844e-05,0.0038142903863883845,0.0799262382706548,-0.10246338887580364,-0.0022312188139920774,0.0021355753840921476,0.00034786198820981555,0.049896955490112305
1763290178.832498,0.0032246996113033818,0.0772063691074614,-0.10251118273042005,-0.0026575340153416212,0.00199477445945484,0.00015135700935784747,0.0063115728960123595,0.081312189333905,-0.1028452274292339,-0.0018817443200997528,0.002214535995709088,1.4262048735454266e-05,0.050002336502075195
1763290178.8826091,0.005602952872006081,0.07835349588345002,-0.10245227155596338,-0.002486857727685601,0.002043112870940611,0.00012118149605176255,0.008445297590367558,0.08180987725299257,-0.10302637853150165,-0.0012549644477110398,0.002010507855965793,0.0001678081497990345,0.049883365631103516
1763290178.9614573,0.00813934114517366,0.07880266195428523,-0.10323384657817879,-0.0022158410686691286,0.002035944696304526,0.00013144280581598884,0.011535213408897264,0.08167242116388318,-0.10309449184249506,-0.0010951169850665762,0.0016801444271832278,0.0001979106863080465,0.05011105537414551
1763290179.0079756,0.01152141666086963,0.07855700836378166,-0.1043147941431635,-0.001969279675362637,0.0019576750321053105,0.00014609995591404533,0.013555094072514273,0.0807115684077878,-0.1030528178902398,-0.0008968484494824656,0.0019229110736327382,4.9904835379544885e-05,0.07884812355041504
1763290179.057676,0.013613718733361011,0.07874002760561007,-0.1047443390622225,-0.00173334508644571,0.0019500181102252157,0.00012494022852152205,0.015588738210173661,0.07918550267185286,-0.10343334209876624,-0.0006410853542762617,0.0018371856967618339,3.5004858068328406e-05,0.04651832580566406
1763290179.1113865,0.015618421348469538,0.0782818584063181,-0.10523493546552141,-0.001493048795859355,0.0019251865519904765,0.0001051650204231407,0.01786967568872368,0.0773560461998009,-0.10439669340820693,-0.0003907727149367045,0.0018857880953191408,0.00013939286519009403,0.04970049858093262
1763290179.1576333,0.017642200204016464,0.07756053731096513,-0.10600014189936265,-0.0012505479352362642,0.0019165221290089463,0.00011269887228742674,0.019917898505407226,0.07578739173474637,-0.10569495448704626,-0.00023475104641497527,0.0019216548181935078,-1.1597155383450467e-05,0.0537104606628418
1763290179.207757,0.0193447354564249,0.07670570903749371,-0.10685893498418389,-0.0010270725659391694,0.001917640487539618,8.535329998937582e-05,0.021978160145047415,0.07428224486394673,-0.10726558884343984,1.577510022952278e-05,0.001822344814876864,-2.3053708730217716e-05,0.04624676704406738
1763290179.2617874,0.021179027688471484,0.07551629296050831,-0.10801687329970937,-0.0007976469497591436,0.0018966657405481424,6.15122840642116e-05,0.02392556649962401,0.07337274275817002,-0.1093079338018425,-0.00030748536303909014,0.0016484538708161356,-1.7048855816290722e-05,0.05012369155883789
1763290179.307801,0.02306470297311728,0.07444402224268967,-0.10962986588756259,-0.0006898130548039984,0.001842055825745259,4.4239269180874145e-05,0.025370563085280882,0.07281628127843338,-0.11106478371543844,-0.00025004084509990795,0.0015466760421047887,2.957729894114529e-05,0.054030418395996094
1763290179.3577642,0.024666723125995854,0.07352222819626819,-0.1111001595905949,-0.0005930635207583558,0.0017770717205709552,4.102478052295936e-05,0.026738744928943226,0.07260176461736763,-0.11294868741424904,-0.0005262324437178969,0.0014989565340743916,-3.434737083052372e-05,0.046013593673706055
1763290179.4113932,0.026396267953987917,0.07269460913871269,-0.11289941968999177,-0.0005783624796717431,0.0017158859473729304,2.4444498932879774e-05,0.02800756477562288,0.0723165266599546,-0.11485554733072191,-0.0005485737138603357,0.001370065470198245,8.158006923423383e-05,0.04996323585510254
1763290179.458016,0.02786241401616542,0.0719409516509033,-0.11468633421289072,-0.0005718072544786899,0.0016398055884372376,3.701521099948879e-05,0.029148111262461734,0.07205525322565288,-0.11649454966814023,-0.0007095932324048836,0.0013771718215100925,4.110765756742961e-05,0.05362892150878906
1763290179.5076516,0.029074730042939374,0.07133950637208558,-0.11633430700420377,-0.0006021200822390972,0.00158202611137237,3.791244451747148e-05,0.030431696743816114,0.07136542114036643,-0.11818797028265372,-0.00032431236694128914,0.001450128291498709,-6.273472933316073e-05,0.04662275314331055
1763290179.5576606,0.030158493728658597,0.07042597644644057,-0.11800152488755473,-0.000541003519060839,0.0015530061920787652,1.577320848493488e-05,0.03169577929767902,0.07061124843119364,-0.11986934180975788,-0.0003641975310609603,0.0014319809312492993,-3.0168630560349923e-05,0.04963564872741699
1763290179.6078398,0.03127832529411774,0.0695531256225337,-0.11962866207835383,-0.0005021066759813322,0.0015263799377938092,5.66783913343554e-06,0.032832945397889036,0.06948443809867538,-0.12147675043616302,-0.00021293019590061594,0.001258005560272446,0.0001523436194184055,0.05000901222229004
1763290179.6580677,0.032277482264976634,0.06828315135098265,-0.12130290774806754,-0.0004384844633730447,0.001467341214184792,3.794317430472462e-05,0.03387253028176961,0.06807354301092768,-0.12305116798777391,-4.6604333136659544e-05,0.001184179550667297,-1.0745603561113287e-05,0.050179243087768555
1763290179.7078092,0.03324246856501993,0.06684755222617811,-0.12323135420355982,-0.0003522720045110173,0.0014050440114876661,2.7241162446617937e-05,0.03470408890937969,0.06653143074844715,-0.12459783282100985,-0.0002002653978872352,0.0010488923934766081,-0.00010655561176573442,0.05022788047790527
1763290179.7578974,0.03386433894185916,0.06553967446354182,-0.12518772767549532,-0.00031883463360733824,0.0013266889106435809,-2.1894881507646534e-06,0.03535378774023172,0.06468390863355168,-0.12623955411594348,-0.0002445728290223995,0.0008928030344141913,3.89607484785411e-05,0.049741506576538086
1763290179.807926,0.034301956554591964,0.0641859768114798,-0.12754947813904424,-0.000302495501389954,0.0012312342800935294,6.866330306591222e-06,0.03582964314517355,0.06248785332329506,-0.12804836143571532,-9.069956047722566e-05,0.0007809230567989989,-3.57568653096498e-05,0.05008816719055176
1763290179.857812,0.03419608040188831,0.06274517109701326,-0.129731608998271,-0.00025590203229233056,0.0011321650365847535,-2.50259140680273e-06,0.036055750569915515,0.060170145742252656,-0.13017725788443418,0.000212705029159741,0.0007360832767737691,-0.00016654781213475744,0.05002856254577637
1763290179.9076796,0.034349068227629655,0.0611837306359411,-0.1323568963759268,-0.0001528140377056935,0.0010450204545289221,-3.857662023392001e-05,0.035722557445351695,0.058296287534198465,-0.13293160842210971,7.798738093966149e-05,0.00038336157326956943,-0.00025008532901199244,0.04988598823547363
1763290179.957695,0.0345007464934661,0.05978744685273013,-0.13503382708672274,-0.00010204972213478463,0.0008994513127156267,-8.50954434549886e-05,0.03489575774846342,0.056910267296997094,-0.13620805343141829,-0.0003329287678248386,1.0734372243081935e-05,4.0056593111040815e-05,0.04986763000488281
1763290180.007972,0.0341658926505646,0.058856727378616795,-0.13806713246218028,-0.00015283358000536652,0.0007039311071130872,-5.7579594511342125e-05,0.0340060183329799,0.055929059468499895,-0.1400403980561363,-0.0007538238846587695,0.0001307272092989642,0.00012122926607432016,0.05001544952392578
1763290180.0576563,0.033639438795269316,0.05811233318751937,-0.14121413002411307,-0.00028504266839186047,0.0005778170311261377,-1.8271198334666028e-05,0.033017498939734026,0.05558134321289454,-0.14416475998606193,-0.001467155268699323,0.00013201346287039506,0.0002638879956390508,0.050276994705200195
1763290180.1078155,0.03310994484909568,0.05754722279508642,-0.14439904235334294,-0.000545096666941917,0.00047971163331372857,4.3758610161336194e-05,0.032063662206581085,0.05578721244370669,-0.1485023619218144,-0.0019307951614634757,0.00015846194566626615,0.000407985694887999,0.04968428611755371
1763290180.1579106,0.03246194011998826,0.0572455717989858,-0.14772860914830427,-0.0008499403094704045,0.0004089934032873721,0.00012385037268522394,0.031195235875428655,0.05644456802592168,-0.15267576785201734,-0.00232343206720495,9.384257120959028e-05,0.0004439918195110663,0.05015921592712402
1763290180.2082653,0.03186974415869866,0.05737489034603219,-0.15111843369006792,-0.0011740998507184233,0.00033961975189611415,0.00019424164497222707,0.030566784556909136,0.05721676570065412,-0.15647194827863944,-0.002328447371737805,0.00024134977543477376,0.00045625085848422024,0.0500950813293457
1763290180.2577837,0.031258654295713215,0.057622915544972765,-0.15461787741414584,-0.0014280540985671115,0.0003179744079946367,0.0002518739368757788,0.030118389273757134,0.058067880770714723,-0.15969768270700987,-0.0022508718006911763,0.00030586389415265813,0.0003978322745430528,0.050354719161987305
1763290180.3081374,0.030471907852712216,0.05775714902435787,-0.15826737723656834,-0.0016090738415001913,0.00031529979068589675,0.0002839839154437508,0.02980031754344082,0.0590258772589694,-0.16242618467022724,-0.0024295585120499537,0.00023806265326231646,0.0006363494109942967,0.04951834678649902
1763290180.3577826,0.029763775873739257,0.058114179284278165,-0.16135804158378442,-0.001789578134681279,0.00029828281526667055,0.00036149888593702765,0.029602567830963607,0.05967736719325654,-0.16482130796190178,-0.002363746734434023,0.00026827815002472555,0.0004294281310407596,0.0503537654876709
1763290180.4079309,0.02922989733022583,0.058307978933014766,-0.16399738787030285,-0.0019158950521556478,0.0002916784425501806,0.0003764418415911679,0.029206749289706842,0.05998459988073918,-0.16714692275561535,-0.002278460916836863,9.581361737720506e-05,0.00035839127302025127,0.049645185470581055
1763290180.4576776,0.028712446894698075,0.05827637231160595,-0.16603545369207467,-0.001995659847131288,0.00024858874273880893,0.00037246462346190843,0.028667114801647627,0.059796753124457404,-0.169394354406735,-0.001968235436104453,1.2165702083510865e-06,0.00041078924165466194,0.05014824867248535
1763290180.5079439,0.028203464511605072,0.05827172924683404,-0.1679228491093745,-0.0019896256631840104,0.00019416695496476954,0.0003808966216735546,0.027924852787918567,0.05917733139821228,-0.17140156224732975,-0.0017508831549861601,-0.0002373494121752362,0.00028383072436992954,0.04974675178527832
1763290180.561589,0.027657062836872318,0.05797098307755354,-0.1699013762719806,-0.001937105904655287,9.923136611522665e-05,0.00035955096332677863,0.027014606322373364,0.05794935985732706,-0.1730591736427359,-0.0010810728964251533,-0.0004035698336235516,0.00022433105823876746,0.050266265869140625
1763290180.6077967,0.026824685488898065,0.05732515824068435,-0.17168709470476134,-0.0017487844785567658,-1.1394826384902856e-05,0.0003298395148991732,0.02622583747899812,0.056800616974798386,-0.17414435473066792,-0.000863897230705147,-0.00042898317294737254,0.00021090211990828435,0.05364513397216797
1763290180.6579113,0.025948893467909306,0.05652466556353922,-0.17321814994361873,-0.0015541135500570119,-0.00010327329008519293,0.00030370499404985775,0.02529343292893698,0.055655162545622645,-0.17506409718101443,-0.0010218778863561788,-0.0006672549121695681,0.00016851758850924812,0.04620766639709473
1763290180.711676,0.0248689390825029,0.05557108766584565,-0.1744618591896555,-0.001437028252999674,-0.000227355419024855,0.0002739895216533085,0.024278069279373125,0.05441296735188896,-0.17589975773568856,-0.0010098784110443005,-0.0007554034520846908,0.00017500904343877602,0.05011463165283203
1763290180.757789,0.023457065963765737,0.054134534063670865,-0.17556264536386226,-0.0013430597798664435,-0.0003435296130653853,0.00025223317102695153,0.023176785917447283,0.05334181915500573,-0.17660180219582705,-0.0009871283418620951,-0.0010784596218433862,0.00021633475715153382,0.05376458168029785
1763290180.807857,0.022423745194631053,0.05309423299123686,-0.17646944809477572,-0.0012647571400341143,-0.0005052153105415957,0.00024435796527957676,0.022990180073005594,0.05304451720942248,-0.17689903918420533,-0.0013528966767801433,-0.0003239258157605729,0.0003105835046744069,0.046113014221191406
1763290180.8617408,0.021836079567621357,0.05173960703709437,-0.17672070481673455,-0.0012841488688443523,-0.00046533212252963807,0.0002589289553830274,0.023051451471583374,0.05315220619026035,-0.1768783467356662,-0.001568170080025142,-0.00019443223026471834,0.0002477956126910179,0.05006814002990723
1763290180.9080403,0.022002022211269536,0.050530903066104915,-0.17627118509126674,-0.0013466332790407606,-0.0004057338750980133,0.0002564862214649551,0.0229898593182137,0.05321585979418149,-0.17684605440433507,-0.001621055407210309,-0.00041383483722956527,0.0003404965667487376,0.05388379096984863
1763290180.9579442,0.02237567218374641,0.050278338672053134,-0.17603478560333255,-0.0014070060887522067,-0.00040751806482020037,0.00027496830661231686,0.023044046825390047,0.05320251810411806,-0.17682681553275412,-0.0015086855375237357,-0.00034970854258475903,0.00027322103399070487,0.04629945755004883
1763290181.0118923,0.022935222145911472,0.04997329863225853,-0.17554467885765357,-0.0014293755590117584,-0.0003947999546898284,0.000274584410968234,0.023052968093857554,0.05327813813976401,-0.1767896605966681,-0.0015923726607375748,-0.00037139372916583646,0.00025964284189028435,0.04990386962890625
1763290181.0581508,0.023430751143335683,0.04968313314266161,-0.17488172383470038,-0.0014652348915115102,-0.00038965037611937703,0.00027129759310226824,0.023066609854860122,0.05329943868530012,-0.17677881688555078,-0.0016188174304158575,-0.0003578328227382688,0.0002752685288586133,0.053948163986206055
1763290181.1082163,0.023635086966433974,0.049914986427752585,-0.17438661624370283,-0.0014990230610700777,-0.0003826505667081648,0.00027217161824411094,0.023122159567698006,0.05331307991878145,-0.1767733506116778,-0.0016346924214771766,-0.00025134302514295825,0.000294681147871491,0.04625844955444336
1763290181.1616213,0.02424821563253745,0.050162922063973804,-0.1731512123167365,-0.0015288705744776617,-0.0003537631696042265,0.0002771252433219116,0.023150741793808285,0.05331756525619287,-0.17676420129446155,-0.00163507599014054,-0.00019995822907281635,0.0003013016141672866,0.05006551742553711
1763290181.2080524,0.02529108538926633,0.05080193596520089,-0.17175893074454254,-0.0015522360853938873,-0.00031992630300736735,0.00028244544653920626,0.023181862198925103,0.05317316136090577,-0.17669292208827228,-0.0013558318147536322,-0.00017364929534346984,0.00023768918636554511,0.053405046463012695
1763290181.2577038,0.02608896739094571,0.05162164059383021,-0.171473722380236,-0.0015090265834640734,-0.00028774611557835783,0.000272596604175752,0.023429838312669645,0.05275243326045857,-0.17627422485719701,-0.0009178520734667336,2.5401358791699025e-05,0.00012938662522133027,0.04643106460571289
1763290181.3080719,0.02674977958403784,0.05191076836030845,-0.1709431527896724,-0.0013789643405763617,-0.00021886093615197666,0.00024107452476822058,0.02570583898441683,0.04994944450436441,-0.17224268474554585,0.001486254400266468,0.0011282960074752157,-0.00036365269339428915,0.049651384353637695
1763290181.3578925,0.028069461315233944,0.050821329485155824,-0.16873402227073464,-0.0007485463952232294,7.736483537024164e-05,0.00010770341131867425,0.028440958096005303,0.04909428768663425,-0.1675598903967822,0.00018496756847961467,0.0013889593110731902,-1.6573865107831873e-05,0.05036807060241699
1763290181.4079828,0.029723407588072383,0.049862608070830663,-0.16533175614996298,-0.0005431593891033041,0.00036590565666339003,8.02573653778271e-05,0.031559033688558794,0.048070753206270474,-0.16267818477257706,0.00036129891522079815,0.0015653400618744762,-0.00020698882549443934,0.049820661544799805
1763290181.4578469,0.0317331082503769,0.04895886832193591,-0.16147944826495117,-0.0003441490708520206,0.0006297589261443637,1.69701480362348e-05,0.034636097499238176,0.04760621898100514,-0.15762987608492982,2.6191593907190853e-05,0.0013971185575276657,-0.0001553511702079521,0.05009031295776367
1763290181.50842,0.034314416904653484,0.04845009604995524,-0.15725946212472958,-0.0002626628003652819,0.0007985725684773737,-2.096491495152006e-05,0.03744782092296639,0.04734039099218508,-0.15257451273788147,-0.00035262885376978676,0.0010735535858372725,-2.3003724714478214e-05,0.04986405372619629
1763290181.557799,0.037014735020054736,0.04826620524835837,-0.15273646879505032,-0.00028245528213391874,0.0008590684080165278,-2.1411330453393706e-05,0.04004494113961401,0.046814220527674845,-0.14752042947598176,0.00010408607031097611,0.0008670205631404748,-0.00021410506127235503,0.050573110580444336
1763290181.608272,0.0393706180189403,0.04795815260622781,-0.14798038188337606,-0.0001974160534640017,0.0008608114913988274,-6.380421462512742e-05,0.04252265047152274,0.04699816142339107,-0.14271920099307261,-0.0003703398910432585,0.0008653752493268385,-6.814801936158747e-05,0.04937911033630371
1763290181.6578424,0.041750783141026086,0.047842402349560366,-0.1431068780073354,-0.0002354592959721211,0.0008618155825903528,-6.47597839527552e-05,0.044822857622723505,0.04725321205245796,-0.1381107718902047,-0.0004217948223131639,0.0007970281598721485,-0.0001390655818475084,0.05047297477722168
1763290181.707968,0.04361647648550826,0.047784479931069206,-0.13859480595186066,-0.00027645352567884227,0.0008475635375833068,-8.110809561152533e-05,0.04685165207071887,0.047746066953794845,-0.13358843796398862,-0.0005461201087874585,0.0006048256887072334,3.1476466364401966e-05,0.049570322036743164
1763290181.7579904,0.04526440359665977,0.04792746686841286,-0.13427250203647098,-0.00033577783347944247,0.0007941586060840056,-5.6345106556093535e-05,0.04856164787546671,0.04828092346329717,-0.12911407716003154,-0.0006304609606484457,0.00032466580446488535,5.4460581948785e-05,0.0501255989074707
1763290181.8079557,0.0488005202682727,0.04846446801908159,-0.1293929433350836,-0.0004006036655792737,0.000690867388510652,-3.197972284469312e-05,0.049895722736777684,0.048664185698729656,-0.12481868207021489,-0.0004443313381913442,0.00016215478144743223,9.894223607281022e-06,0.05002236366271973
1763290181.8579807,0.05118813894516018,0.04893950198766655,-0.12476060033716312,-0.0004102218550442959,0.0005745504578680283,-2.2769437270682697e-05,0.05133016877507943,0.049096954729255196,-0.12061271618994703,-0.00044149058985193705,0.00038125128938815145,-5.2409457076318295e-05,0.04996538162231445
1763290181.9082181,0.05280629579453436,0.04936842231999856,-0.12054304698745151,-0.00041710146855013897,0.0005320247203253192,-2.9290760474542485e-05,0.053598987373443194,0.04977402665338312,-0.11624952208747069,-0.0007830572393963803,0.0007322731470935651,0.00011432386306670832,0.050024986267089844
1763290181.9578793,0.054456517143065396,0.04986694077408895,-0.11635837908135128,-0.0004976142018247988,0.0005760748646110869,2.3107426854059887e-06,0.056437111451471365,0.050431973040071756,-0.11179507361262228,-0.0009096670630774263,0.0009542504488260217,9.092897328264717e-05,0.050237417221069336
1763290182.0083115,0.05647603806430604,0.05036513369973051,-0.11231578072561721,-0.0005882686974256919,0.0006592703595804661,2.182012137294872e-05,0.05920551924494764,0.05092357951150562,-0.10740018305427017,-0.0005970347259121338,0.0008164732892934623,7.062858843565464e-05,0.04966115951538086
1763290182.0578647,0.058589885286240616,0.050788656090184285,-0.108301450415535,-0.0005901978819380857,0.0006938549674042616,3.255810189659026e-05,0.06179411632173686,0.05166811654452532,-0.10323041093963488,-0.0008972002181428847,0.0007329664147825987,9.2113312455842e-05,0.05043220520019531
1763290182.108269,0.060778261625767424,0.05135836784155744,-0.1045754586516582,-0.0006577385950201734,0.0007024579170653578,4.5661278260650025e-05,0.06405096497699776,0.05209487285775904,-0.09927301525443563,-0.0007682325677431431,0.0004947889094486513,8.07475660676523e-05,0.04955315589904785
1763290182.1579707,0.06279815132157501,0.05182868178209517,-0.10087433943682726,-0.0006820466451053767,0.0006567704027806709,5.337829319110885e-05,0.06594721669199313,0.05249744599712683,-0.09572594839048323,-0.0006907184215368293,0.0002803823034167596,0.00022551254778380202,0.05040431022644043
1763290182.2082365,0.0645611178791008,0.05226110661077397,-0.0974655552216918,-0.0006839488771475625,0.0005739648929354857,9.124755214948979e-05,0.06758738968326208,0.05285853896646345,-0.09262032360865274,-0.0007011163494315034,0.0003116855490925552,1.8660425934749374e-07,0.049701690673828125
1763290182.257975,0.06616715971020841,0.052717433875503254,-0.09451911742363432,-0.0006877277704353612,0.0005162635714381913,7.12137562766851e-05,0.06879913341856782,0.05323841855717789,-0.08992360812906511,-0.0008842235737082661,0.00014155763216594508,8.451195639152171e-05,0.05026578903198242
1763290182.3119035,0.06749888439994293,0.0531583076579332,-0.09190850399370519,-0.0007309564221407018,0.00043382804071567804,7.413304317295075e-05,0.06979070156846523,0.05348060591037277,-0.08751053207877076,-0.0007647319590967103,9.49044215770023e-05,2.0739535328835408e-05,0.04973864555358887
1763290182.3578908,0.06857289911083335,0.053544185448755034,-0.08962743195743506,-0.0007383885932564837,0.0003592649992472108,6.238548875829e-05,0.07039065320058555,0.053814959658579374,-0.0858341485994679,-0.000812776572495954,5.883660013195069e-05,9.777534633651306e-06,0.053928375244140625
1763290182.408336,0.06936287254660835,0.05384379115247575,-0.08775667163811912,-0.0007547553052583925,0.0002931710872315918,5.080982101274394e-05,0.07087001246993932,0.05416363361225439,-0.08449542261116796,-0.000892560941829027,8.653287996396308e-05,0.00011407397616973362,0.04598736763000488
1763290182.4630902,0.0699297821640368,0.05408915542150072,-0.08629704431678771,-0.000785071424212056,0.0002477099336528621,6.472549216074396e-05,0.07113479113721109,0.054592415686727555,-0.08352062918962416,-0.0009218338611242726,0.0001111474040480509,0.00012752564093855185,0.0504450798034668
1763290182.5084052,0.0703274717004554,0.05435264901343748,-0.08510598025445971,-0.0008151584248233561,0.00021766544025392243,7.853992257883616e-05,0.07115005294595693,0.05487671190871518,-0.08300411792421467,-0.0008303503710049462,1.5636312272748754e-05,0.00016585661757688447,0.05475425720214844
1763290182.5580585,0.07055416952765743,0.05460420706561847,-0.08425394421718319,-0.0008184991394667529,0.00017321891829613634,9.774933237317656e-05,0.07106695532835429,0.05502913852031647,-0.08269934989969363,-0.0006333459689881461,-2.3002639160774052e-05,8.160027001473836e-05,0.04531502723693848
1763290182.611638,0.07067699054644908,0.054833269324733015,-0.08363862561137088,-0.0007777657134960836,0.00013004991916365505,9.419965583193455e-05,0.07081384584453004,0.05503148355380591,-0.08258862956359611,-0.00038007899929501637,-0.0002177421021478665,-0.00016856304163085446,0.04965329170227051
1763290182.657967,0.07066085012266128,0.05498864390363894,-0.08326865873251062,-0.0006902824773265363,5.3526709245410586e-05,3.6403729750187365e-05,0.07062628057639939,0.055220460073473095,-0.08265547839126465,-0.0005119062925816256,-0.00015852780627434448,-0.00014161263107393302,0.05357956886291504
1763290182.7084057,0.07056130372546339,0.055082379804954375,-0.08310807452050552,-0.0006510429556489081,6.871991456103288e-06,-2.756624118123788e-06,0.07042377495787375,0.055369429935107545,-0.08275884748455545,-0.000613975776896998,-0.00016371307766815946,-4.126989733536039e-05,0.04632902145385742
