timestamp,des_x_t0,des_y_t0,des_z_t0,des_roll_t0,des_pitch_t0,des_yaw_t0,act_x_t0,act_y_t0,act_z_t0,act_roll_t0,act_pitch_t0,act_yaw_t0,dt
1763290068.7506528,1.6055674399800786e-05,-1.5934227095858676e-05,-7.569109653281319e-06,0.0,0.0,0.0,1.9640807767373766e-09,3.0319176963804225e-07,1.421387304628672e-07,-5.326322178962594e-07,-8.299324116833873e-09,-6.190310862720806e-10,0.01
1763290068.795758,0.0016957908768872466,-0.0021264694172397096,-0.0013836775989056083,-1.1717908793761784e-07,-1.8258512479718547e-09,-1.3618721825768223e-10,-1.91082310343114e-08,4.5737022008965245e-06,-1.7203381987201605e-08,-1.1981960409442127e-05,-6.17738411534674e-08,1.2890104044212267e-07,0.10479116439819336
1763290068.8458729,0.002549269295904361,-0.0032747354091286983,-0.0018730474678206551,-2.7274309780048995e-06,-1.5014540277746846e-08,2.8251941839932497e-08,-3.7595276211633116e-08,8.580512587703102e-06,-4.6811326739117693e-08,-2.2634604769584892e-05,-1.053452933774679e-07,1.256511273725676e-07,0.0451052188873291
1763290068.9000018,0.0033393501673267384,-0.004141213177211444,-0.0023313077608369554,-7.10700921139761e-06,-3.488747246649382e-08,4.9679608368669224e-08,-4.822714269042795e-08,1.1389675183116414e-05,-4.6325830404591196e-08,-3.0355507435703723e-05,-1.44295993154131e-07,2.5625450288887956e-07,0.05011487007141113
1763290068.945822,0.003969517057823772,-0.00492309156833317,-0.0023722596263170085,-1.2221678818805764e-05,-5.895775911923806e-08,9.512586692273116e-08,-5.634353578582317e-08,1.3071707510653951e-05,-1.598432040087621e-07,-3.461656517995478e-05,-1.598572261229947e-07,2.550938196423659e-07,0.05412888526916504
1763290068.9959786,0.004077316140739768,-0.004934817398160638,-0.0020607700237144236,-1.7148553816873657e-05,-8.115594907209811e-08,1.3031862264397408e-07,-5.938297964759167e-08,1.4084392273454108e-05,-1.1414653479416467e-07,-3.754604237887038e-05,-1.7023138143557048e-07,2.5432003068446723e-07,0.04582023620605469
1763290069.0502994,0.004316330770104697,-0.005108680862563671,-0.002078651979818326,-2.1636001299565213e-05,-1.0075276124510424e-07,1.5759877652115284e-07,-6.286905194570917e-08,1.4802095882090604e-05,-1.203337706082633e-07,-3.941025514162913e-05,-1.7645587457870704e-07,2.5385575751411235e-07,0.050156593322753906
1763290069.0958834,0.005043970530795177,-0.005161672159464676,-0.0015454081898113143,-2.554633714419404e-05,-1.1740759298106695e-07,1.7877519688976728e-07,-6.435521424078654e-08,1.5042068997722865e-05,-1.3229870845283648e-07,-3.9942887359912625e-05,-1.7956812126129762e-07,2.5362362088591474e-07,0.0543208122253418
1763290069.1459775,0.0052903048895732215,-0.004481299214675792,-0.0008251198984193632,-2.871357819125292e-05,-1.3108300156439157e-07,1.9524177338661855e-07,-6.763029686563799e-08,1.5364098981006805e-05,-2.4272567450981514e-07,-4.0475519577750495e-05,-1.8164295223499494e-07,2.534688631880727e-07,0.04558396339416504
1763290069.2003832,0.0058687709922390545,-0.00391861786492986,-0.00025247689190490503,-3.1301205296029794e-05,-1.422062494427223e-07,2.080516821190575e-07,-6.964735669668399e-08,1.572516754783922e-05,-2.7553870534488646e-07,-4.154078401347389e-05,-1.8579261440443418e-07,2.531593473746707e-07,0.0500941276550293
1763290069.2459614,0.006429996819239104,-0.003596945707977419,3.8182140828381943e-05,-3.35539126136988e-05,-1.5179528944919696e-07,2.1797533018219856e-07,-6.964735669668399e-08,1.572516754783922e-05,-2.7553870534488646e-07,-4.154078401347389e-05,-1.8579261440443418e-07,2.531593473746707e-07,0.05440568923950195
1763290069.2958472,0.005704122479200331,-0.0029783036714512135,2.7693020567874627e-05,-3.531102432154669e-05,-1.592747249645754e-07,2.2571579066705635e-07,-6.964735669668399e-08,1.572516754783922e-05,-2.7553870534488646e-07,-4.154078401347389e-05,-1.8579261440443418e-07,2.531593473746707e-07,0.0455782413482666
1763290069.345853,0.005071510260194954,-0.0025577924052531406,7.298313447373833e-05,-3.6681571453708237e-05,-1.6510867539842877e-07,2.3175335896855626e-07,-6.68800025583939e-08,1.5611175184401264e-05,-1.4958594312987424e-07,-4.074183568647348e-05,-1.8371778320869225e-07,2.5331410527316405e-07,0.04988574981689453
1763290069.396005,0.004255276739435966,-0.0021954497197500178,6.242534078930158e-05,-3.7574829584882156e-05,-1.6920268652853565e-07,2.364967166726997e-07,-6.975269307120854e-08,1.624526330454398e-05,-2.3674394029713867e-07,-4.233973234048895e-05,-1.8890486086498015e-07,2.529272108162296e-07,0.05000591278076172
1763290069.4459605,0.003524753048805329,-0.001666038783262599,0.0003785316386488424,-3.8623108191087876e-05,-1.7353717174373173e-07,2.401114173294598e-07,-6.975269307120854e-08,1.624526330454398e-05,-2.3674394029713867e-07,-4.233973234048895e-05,-1.8890486086498015e-07,2.529272108162296e-07,0.050151824951171875
1763290069.4959834,0.002847152140079606,-0.0010640422363545282,0.0008921780393166319,-3.944076550393922e-05,-1.7691806730724124e-07,2.429308869960014e-07,-6.975269307120854e-08,1.624526330454398e-05,-2.3674394029713867e-07,-4.233973234048895e-05,-1.8890486086498015e-07,2.529272108162296e-07,0.04995560646057129
1763290069.54597,0.002212251929667764,-0.00047283053446537076,0.0014291547878068761,-4.0078538207969875e-05,-1.7955516451451103e-07,2.451300752549595e-07,-7.51444387823348e-08,1.681613413635275e-05,-4.780213860497113e-07,-4.3404996776648776e-05,-1.930545230344194e-07,2.5261769517859933e-07,0.05002284049987793
1763290069.5958288,0.0016260905688756865,-2.395391259259579e-05,0.0016744022846449343,-4.081035909307055e-05,-1.8252502553828265e-07,2.467773477853057e-07,-7.51444387823348e-08,1.681613413635275e-05,-4.780213860497113e-07,-4.3404996776648776e-05,-1.930545230344194e-07,2.5261769517859933e-07,0.04998660087585449
1763290069.6459372,0.001055225998065703,0.00028766465260827263,0.002049672014133726,-4.138117938345249e-05,-1.8484151631525947e-07,2.4806222186775415e-07,-7.51444387823348e-08,1.681613413635275e-05,-4.780213860497113e-07,-4.3404996776648776e-05,-1.930545230344194e-07,2.5261769517859933e-07,0.049858808517456055
1763290069.6957922,0.0006507159138324139,0.00045717704736220223,0.002267729934437966,-4.182641920995246e-05,-1.8664837853066274e-07,2.490644245700043e-07,-7.51444387823348e-08,1.681613413635275e-05,-4.780213860497113e-07,-4.3404996776648776e-05,-1.930545230344194e-07,2.5261769517859933e-07,0.05010843276977539
1763290069.7533543,0.0002699391480104931,0.0005516554633066208,0.0025724415867554623,-4.2173706274623696e-05,-1.880577307211695e-07,2.4984614323623443e-07,-7.51444387823348e-08,1.681613413635275e-05,-4.780213860497113e-07,-4.3404996776648776e-05,-1.930545230344194e-07,2.5261769517859933e-07,0.04985499382019043
1763290069.7959957,-0.0009025171277896629,0.0026031850960446423,0.002318567412530649,-4.244459018506802e-05,-1.8915702537647405e-07,2.504558841356699e-07,-7.185220632947748e-08,1.6610766079240638e-05,-3.2900368712718695e-07,-4.233973234048895e-05,-1.8890486086498015e-07,2.529272108162296e-07,0.05756211280822754
1763290069.8458455,-0.001454377689669239,0.004073956746136503,0.0010281318681384885,-4.2421521459260686e-05,-1.8910154930829037e-07,2.509995760031243e-07,-7.185220632947748e-08,1.6610766079240638e-05,-3.2900368712718695e-07,-4.233973234048895e-05,-1.8890486086498015e-07,2.529272108162296e-07,0.042641401290893555
1763290069.8959591,-0.0015223875245317985,0.005399905154386994,-4.2264691866195256e-05,-4.2403527853130936e-05,-1.890582776997718e-07,2.514236556606272e-07,-7.185220632947748e-08,1.6610766079240638e-05,-3.2900368712718695e-07,-4.233973234048895e-05,-1.8890486086498015e-07,2.529272108162296e-07,0.049849748611450195
1763290069.9464238,-0.0011979823522388982,0.006158383276038798,-0.0008546608235633172,-4.238949284034971e-05,-1.8902452603164477e-07,2.5175443779401987e-07,-7.185220632947748e-08,1.6610766079240638e-05,-3.2900368712718695e-07,-4.233973234048895e-05,-1.8890486086498015e-07,2.529272108162296e-07,0.050113677978515625
1763290069.996046,-0.0005665391440627392,0.006541167312415053,-0.0015582475213649332,-4.237854553038038e-05,-1.8899819975715104e-07,2.5201244785839513e-07,-7.138661239272592e-08,1.6610766762076553e-05,-3.2901157726612114e-07,-4.2355583829254144e-05,-1.849405912857094e-07,-6.813375486051786e-07,0.050464630126953125
1763290070.0459857,1.4993613008913592e-06,0.006664429052690052,-0.001983529573503344,-4.2373493955807656e-05,-1.8810552759873644e-07,4.6675448628414945e-08,-7.185220632947748e-08,1.6610766079240638e-05,-3.2900368712718695e-07,-4.233973234048895e-05,-1.8890486086498015e-07,2.529272108162296e-07,0.049622297286987305
1763290070.0958834,0.0006732298966507597,0.006654796481397221,-0.0023239337428898653,-4.2366066400423395e-05,-1.8828138048654353e-07,9.20508363120496e-08,-7.195572703160534e-08,1.671921943844583e-05,-3.8069145011261485e-07,-4.2606048449673e-05,-1.8890486086498015e-07,2.529272108652905e-07,0.049939632415771484
1763290070.1459281,0.0011698596588953056,0.006569480109135826,-0.0026145743271532036,-4.241886245124972e-05,-1.8841854942941438e-07,1.2744363870092476e-07,-7.185220632947748e-08,1.6610766079240638e-05,-3.2900368712718695e-07,-4.233973234048895e-05,-1.8890486086498015e-07,2.529272108162296e-07,0.04989767074584961
1763290070.1960967,0.0015434414022747799,0.006498884914836178,-0.0027855349977137906,-4.2401453826877116e-05,-1.885255371814054e-07,1.5505002456959354e-07,-7.195572703160534e-08,1.671921943844583e-05,-3.8069145011261485e-07,-4.2606048449673e-05,-1.8890486086498015e-07,2.529272108652905e-07,0.05004477500915527
1763290070.2459152,0.001752873040979697,0.006402584904704938,-0.0030121090363987384,-4.244646464388902e-05,-1.8860899020367583e-07,1.765830055479881e-07,-7.195572703160534e-08,1.671921943844583e-05,-3.8069145011261485e-07,-4.2606048449673e-05,-1.8890486086498015e-07,2.529272108652905e-07,0.050168514251708984
1763290070.295992,0.0018543254548578185,0.00645024683320706,-0.0028752286920559395,-4.248157308115956e-05,-1.886740828016542e-07,1.9337873071374342e-07,-7.195572703160534e-08,1.671921943844583e-05,-3.8069145011261485e-07,-4.2606048449673e-05,-1.8890486086498015e-07,2.529272108652905e-07,0.04981851577758789
1763290070.350067,0.0022422360323709014,0.006307851623257076,-0.0029423909147467666,-4.250895766223133e-05,-1.8872485463283795e-07,2.064793963446191e-07,-7.195572703160534e-08,1.671921943844583e-05,-3.8069145011261485e-07,-4.2606048449673e-05,-1.8890486086498015e-07,2.529272108652905e-07,0.05007672309875488
1763290070.395987,0.0032602766301450593,0.005680363939649717,-0.003560867984452407,-4.253031763546779e-05,-1.8876445628812633e-07,2.1669791553766727e-07,-7.195572703160534e-08,1.671921943844583e-05,-3.8069145011261485e-07,-4.2606048449673e-05,-1.8890486086498015e-07,2.529272108652905e-07,0.054075002670288086
1763290070.4460351,0.0034878088890092046,0.004963907922419707,-0.0036780809748118265,-4.2546978414592505e-05,-1.8879534557925126e-07,2.2466836050883209e-07,-7.288691490510845e-08,1.6719218072773994e-05,-3.806756698347467e-07,-4.262189993840844e-05,-1.849405912857094e-07,-6.81337548370791e-07,0.04592013359069824
1763290070.499877,0.003752765335884377,0.004467436772142787,-0.004157005059693233,-4.256346114953235e-05,-1.8794729372828556e-07,2.5347060580094406e-08,-7.195572703160534e-08,1.671921943844583e-05,-3.8069145011261485e-07,-4.2606048449673e-05,-1.8890486086498015e-07,2.529272108652905e-07,0.050048112869262695
1763290070.546005,0.003873376325955354,0.0038621341154399455,-0.005006973864704793,-4.2572830355544596e-05,-1.881579594353866e-07,7.541469363933856e-08,-7.195572703160534e-08,1.671921943844583e-05,-3.8069145011261485e-07,-4.2606048449673e-05,-1.8890486086498015e-07,2.529272108652905e-07,0.05384182929992676
1763290070.5963962,0.0035984505221548636,0.0029054131091319924,-0.005306387750939192,-4.258013833624147e-05,-1.8832227821619085e-07,1.1446744742691925e-07,-7.195572703160534e-08,1.671921943844583e-05,-3.8069145011261485e-07,-4.2606048449673e-05,-1.8890486086498015e-07,2.529272108652905e-07,0.046128034591674805
1763290070.6499379,0.003368372051319593,0.0017945980109123159,-0.005934522827034547,-4.25858385611895e-05,-1.8845044680304568e-07,1.4492859538206578e-07,-7.195572703160534e-08,1.671921943844583e-05,-3.8069145011261485e-07,-4.2606048449673e-05,-1.8890486086498015e-07,2.529272108652905e-07,0.050391197204589844
1763290070.6961083,0.0034233898571778077,0.00044491607803142703,-0.006381500342261258,-4.259028473665165e-05,-1.8855041816756568e-07,1.6868829078758722e-07,-7.195572703160534e-08,1.671921943844583e-05,-3.8069145011261485e-07,-4.2606048449673e-05,-1.8890486086498015e-07,2.529272108652905e-07,0.05354166030883789
1763290070.7461126,0.003290190336081837,-0.00040437778392432414,-0.006131818798428299,-4.259375275351379e-05,-1.8862839556987865e-07,1.872208532042025e-07,-7.468367012868064e-08,1.724263709545123e-05,-3.864383262969627e-07,-4.393762899445004e-05,-1.982416006907073e-07,2.52230800977636e-07,0.04617047309875488
1763290070.8000207,0.0034610661141546897,-0.0008378861717570932,-0.006161220051850587,-4.288940552646615e-05,-1.907433082593002e-07,2.0152304060591036e-07,-7.468367012868064e-08,1.724263709545123e-05,-3.864383262969627e-07,-4.393762899445004e-05,-1.982416006907073e-07,2.52230800977636e-07,0.05000424385070801
1763290070.8461015,0.0035694532587549612,-0.0010474449986618939,-0.006272333866064297,-4.312001468938997e-05,-1.9239293713724237e-07,2.126787472133113e-07,-7.468367012868064e-08,1.724263709545123e-05,-3.864383262969627e-07,-4.393762899445004e-05,-1.982416006907073e-07,2.52230800977636e-07,0.05390810966491699
1763290070.8961475,0.003049867439879024,-0.0007206158524831481,-0.006286435327907241,-4.329988983648334e-05,-1.9367964587679865e-07,2.2138019863117107e-07,-7.468367012868064e-08,1.724263709545123e-05,-3.864383262969627e-07,-4.393762899445004e-05,-1.982416006907073e-07,2.52230800977636e-07,0.046080827713012695
1763290070.949785,0.0025651242881721634,-0.0002346662272526019,-0.00663549198385289,-4.344019245122394e-05,-1.9468327772109717e-07,2.2816733089777211e-07,-7.468367012868064e-08,1.724263709545123e-05,-3.864383262969627e-07,-4.393762899445004e-05,-1.982416006907073e-07,2.52230800977636e-07,0.05004596710205078
1763290070.996432,0.002582093840647219,-0.0006260480547693472,-0.00647907953771331,-4.3549628490726326e-05,-1.9546610974252587e-07,2.3346129416347266e-07,-7.468367012868064e-08,1.724263709545123e-05,-3.864383262969627e-07,-4.393762899445004e-05,-1.982416006907073e-07,2.52230800977636e-07,0.05363750457763672
1763290071.0459728,0.0024721706604194124,-0.0012176893428940546,-0.005139572303994397,-4.363498860154108e-05,-1.960767184172596e-07,2.3759058557019124e-07,-7.852184817101013e-08,1.7643399997578466e-05,-5.50762008917449e-07,-4.473657732141851e-05,-2.0446609383384384e-07,2.517665275184265e-07,0.046647071838378906
1763290071.0964603,0.0024170582260069004,-0.001929800906239106,-0.0037269439083552542,-4.38773449257286e-05,0.0005938659456463657,2.147153337577469e-07,-1.4080101875810211e-07,1.725740001151388e-05,-3.842095047098134e-07,-4.3944422481146494e-05,-2.3181475428124543e-07,-1.507992635432135e-07,0.04954075813293457
1763290071.1461635,0.0022802089122180864,-0.0023550156900343203,-0.0023024766426464585,-4.389221809991759e-05,0.0015737306924563654,8.556166889237204e-08,-4.981249457964186e-07,1.6858984864244232e-05,-4.5266625025381627e-07,-4.307814804150884e-05,4.172190921547525e-05,-0.00018139706384162288,0.050487518310546875
1763290071.196022,0.0021723917898333178,-0.0019753888895442137,-0.0013489675415196112,-4.3766942893368615e-05,0.002730656956145827,-3.9906078278189574e-05,-1.4079880934870675e-05,9.379901759100437e-06,1.4180036292011144e-06,-2.8044440279628403e-05,0.00046719869106559564,9.239016260887949e-05,0.049703121185302734
1763290071.2461398,0.002138259535605384,-0.0012356863884982901,-0.0008741360380528598,-4.0255931665231095e-05,0.00406171450619186,-1.0874549822376846e-05,-2.0526746150397057e-06,-9.195792748674543e-07,3.508317829947353e-06,-9.879733304393465e-06,0.001413438416359769,0.0003665750644685968,0.04985857009887695
1763290071.2962184,0.00207508866397465,-0.0004893840010203045,-0.0006914735072745526,-3.340005666709403e-05,0.005590947235475596,7.209419133075342e-05,-8.060260159630402e-05,-1.3845507275633148e-05,5.707183063448875e-06,5.695913294730927e-06,0.0026819448595161166,0.0004888342111368716,0.05011773109436035
1763290071.3460107,0.0017513048091688775,-8.812288353131836e-05,-0.0007299176569288628,-2.4588317812362438e-05,0.007284517007660085,0.00016372026789058278,-0.00011093190521172151,-2.3315303045971665e-05,8.17829817306585e-06,1.2736251277061587e-05,0.004513611858283806,0.000744831649984643,0.050078630447387695
1763290071.3962069,0.0014474873953793127,1.9282429833031787e-05,-0.0007759366276440672,-1.6079214623993883e-05,0.009175942546835625,0.00029152498486831156,-0.00015669285561806357,-2.7388992377434828e-05,1.0582806561871997e-05,2.6395288802573797e-07,0.0067918232337425,0.0008449473758183202,0.04979228973388672
1763290071.446008,0.001071812712968077,0.00025060421133106916,-0.000830773964751029,-1.2208198024721174e-05,0.011323205548452453,0.00041324606913416674,-0.0001754208022747448,4.8163737068956765e-05,-1.294836046660155e-05,-0.00011839789621750187,0.00938770353025098,0.0010315199153898276,0.050196170806884766
1763290071.496181,0.0007264150560054249,0.00024042830826394537,-0.0007408266371806425,-3.527978710931375e-05,0.013669381847867923,0.0005491862841689292,-0.0001853469985865443,7.854284940932376e-05,-1.5190836212052903e-05,-0.00021492266128831226,0.012419583967672843,0.0012466228839753564,0.04980111122131348
1763290071.546238,0.0004454014870076924,0.00016075283305887406,-0.0007525529546043273,-7.450714946008531e-05,0.016287878621114693,0.0007024484879054602,-0.00022074306270246363,9.204492788918284e-05,-4.389033817201216e-06,-0.00025568697210201014,0.015539945530802957,0.0013177057801006978,0.050173044204711914
1763290071.5964336,0.0002787687332041844,0.00010404919680289815,-0.0007139465408209419,-0.00011413149187679164,0.01909217320012635,0.0008375175315618578,-0.0002319950010138481,0.00016644007831206764,-1.6387505395833986e-05,-0.0004090951490885702,0.018867291386620133,0.0014862388525959578,0.05005693435668945
1763290071.6462045,0.0002430081529849942,8.189279669488802e-05,-0.0006380539736556488,-0.00017880308378313676,0.022087304919900408,0.0009797891351114461,-0.00025644388521260566,7.444153926971337e-05,-3.269876752529688e-06,-0.00014427610271934167,0.022453443626868852,0.0015123668043955636,0.05019569396972656
1763290071.6962745,0.00018512439041786617,4.4567380314664644e-05,-0.0005922051016972424,-0.0001710565291920387,0.02524107855097557,0.001096421205911843,-0.00031379218207548806,6.261316023078402e-05,1.1516642095215632e-05,-0.00014298178062211413,0.026006475609476443,0.0015851896027406723,0.04977083206176758
1763290071.7461264,0.00017987293944066271,5.5849334392917145e-05,-0.0005608615481769288,-0.00016475769296353488,0.028546230408056594,0.0012034251756993105,-0.0002865164681661478,7.547764122863084e-05,1.0202660347897462e-05,-0.0001590815989111889,0.029807289764098188,0.0016623747433682737,0.05007004737854004
1763290071.7961977,7.888239767385284e-05,0.00013525280994544124,-0.0005323277180307631,-0.0001634147570956995,0.03198334156639082,0.0013038780795685545,-0.0002603011475354082,8.582079432969698e-05,-1.3839242889806647e-06,-0.00025251613400428216,0.03385052999178062,0.0018560162067659642,0.04985189437866211
1763290071.8460884,-0.00013627216475682022,0.0003269802225845065,-0.0004117416761652656,-0.0001829291694771714,0.035597918502411785,0.0014248112086846637,-0.000280752505319257,9.258138434890025e-05,-7.1364147687949025e-06,-0.0001830323859715805,0.037690681956729755,0.0020707627206102137,0.05007123947143555
1763290071.8963275,-0.0005532996893986395,0.0006220857636391788,-0.00033074626113468206,-0.00018286124890542558,0.03927514311202707,0.0015663360235868425,-0.00027967071008802726,4.2771084360641974e-05,1.6194756945332807e-05,-3.1405652548057034e-05,0.041749777191674387,0.001673065694686796,0.049890756607055664
1763290071.9462926,-0.0010043785793921022,0.0009738153767717541,-0.00028193979895107645,-0.00014954900407836158,0.043079229191012924,0.0015892427724041101,-0.00033506999468562706,6.156543455658193e-05,2.640837287166119e-07,-0.0001402914587539461,0.04571542886731872,0.0018212834312404088,0.05023908615112305
1763290071.9962752,-0.0014706636502809655,0.0012128687191965515,-0.00024314338249119274,-0.0001475035125077533,0.046917588939278554,0.0016398065537683647,-0.0003118279690133962,1.4391154688376412e-05,2.0768696482256385e-05,3.076806609194659e-05,0.04980517485540714,0.0018547288006427515,0.04996514320373535
1763290072.0462167,-0.0019336603436209815,0.0013111005915685963,-0.00018054573151593694,-0.00010828220231748674,0.05082591551847959,0.0016866273050468589,-0.00030178296288718405,-1.4704234000131123e-05,3.444793535760838e-05,7.337783736414761e-05,0.05397069488194983,0.002000431056140637,0.049982547760009766
1763290072.1002688,-0.002637193690086018,0.0013619668830797721,-2.817399362324977e-05,-6.83062306597178e-05,0.05479919669422406,0.0017553264233940895,-0.0003206705787962707,4.885424815685345e-05,2.4476402954171685e-05,-8.355839308780032e-05,0.058481574940348446,0.0018488035236104033,0.0499415397644043
1763290072.1464179,-0.003514074076145324,0.0015573103202068531,5.729842091432544e-05,-7.166855160261494e-05,0.059171352977366976,0.0017756469108962047,-0.00035195299070879825,7.442944159267787e-05,1.666548008932338e-05,-7.061102737184616e-05,0.06220212589062357,0.0019345760365524997,0.054052114486694336
1763290072.19628,-0.003948842809210571,0.0018095251366271842,1.369922088720491e-05,-7.143726599210699e-05,0.06288561586734964,0.001810393308178595,-0.00040675186744180253,9.149772218961626e-05,5.64713594815659e-06,-0.00014115012892001286,0.06633100371900169,0.0019276539564969492,0.04614901542663574
1763290072.2503006,-0.00476885458711826,0.002283006741870989,-0.00013357095150096966,-8.678182738325493e-05,0.06694233910421277,0.0018359502991747742,-0.00031996201893957264,7.940926239863803e-05,1.8753527874907267e-06,-5.247178569088863e-05,0.07112815279333717,0.002029195392783093,0.04986214637756348
1763290072.2962048,-0.005812575312380972,0.002864448489286232,-0.0004632463563249914,-7.924835907708191e-05,0.07144283830078879,0.0018781544495772328,-0.00032328576425646343,9.364140321601721e-05,-4.2874921980844355e-07,-6.708325317110391e-05,0.07501524370241386,0.0020005652155880116,0.05402064323425293
1763290072.3462346,-0.006097809541236983,0.0028032761707544426,-0.0006801321827645231,-7.658625375728374e-05,0.07527396502962702,0.001904843416297233,-0.000335856926572643,6.77651062434449e-05,1.1500122451997105e-05,-5.309256610827999e-05,0.07920570315159203,0.001954838004948852,0.04590415954589844
1763290072.4001393,-0.006626242890859945,0.0025290441194480984,-0.0008638821046671278,-7.143590830227059e-05,0.07946117139656961,0.0019155877586124357,-0.0003726726839377687,3.5255316547537105e-05,4.4584165511519595e-05,3.729524294977603e-05,0.08360616781223507,0.0019095162083029682,0.050029754638671875
1763290072.4462242,-0.007250185988982275,0.0021628858427943333,-0.0009703812382096211,-4.7535900102462614e-05,0.08395576729769472,0.0019139993570839952,-0.0003246857232467765,1.8821662411318534e-05,3.2452271822132525e-05,7.842508383216255e-05,0.08765185093289207,0.0016131061282765114,0.05390477180480957
1763290072.4963822,-0.00705369083522557,0.001662727479768608,-0.0008967197738285844,-1.9842852714663627e-05,0.08783374789242604,0.0018476585932301788,-0.00035223511069254595,2.4181501862378696e-05,2.9032795338818434e-05,3.745670249290546e-05,0.09190067698605664,0.0019434620552944914,0.04608488082885742
1763290072.5502431,-0.00684265330531387,0.0011210543428234656,-0.0007361527976296973,-7.241078637561144e-06,0.0920660429524065,0.0018686700540838258,-0.0003382296134963633,6.117262482424335e-05,2.5754469593513073e-05,2.5430100547934527e-05,0.09647211396816946,0.0020342100032746738,0.050158023834228516
1763290072.5962799,-0.00642612995670128,0.0006831092456449191,-0.0005023302664809449,-5.309964890986818e-08,0.0966210693155587,0.0019050635577295668,-0.0003616485429594814,0.00012400326379362128,1.83166460281773e-05,-0.00010967367518703141,0.10044308063268303,0.002064250433550138,0.05386090278625488
1763290072.6462913,-0.004941677348122647,0.0005802196163258563,-0.00036860044415244894,-2.4168255126924005e-05,0.10052775239762424,0.00194008363012209,-0.0003479988518607671,8.876413741042124e-05,2.5827051862970924e-05,-4.696669412629665e-05,0.10471951792405232,0.001953652208407603,0.046036720275878906
1763290072.700216,-0.003975955415434175,0.0005410578265268503,-0.00012358211671882586,-2.9192131540931777e-05,0.10478148434127221,0.0019429876094237584,-0.0003582498331162752,4.308489115148508e-06,3.361603179368112e-05,0.00018151012479744046,0.10921436592692269,0.0020202563722494637,0.050011396408081055
1763290072.7464933,-0.0028247997162503796,0.0009376629692641511,3.936920256001446e-05,1.7152592315642946e-05,0.10934990720561055,0.001959884501297582,-0.00035107334579097515,3.9279395466873205e-05,4.338012197041591e-05,8.4648143420072e-05,0.11324585003026755,0.0019222989478113587,0.0539247989654541
1763290072.7965353,-0.0019862607693125495,0.0011195285465668298,-0.00012972577042868485,3.200809734220877e-05,0.11276953485730368,0.0019516565784067016,-0.0004067476559292997,0.00014462179403973993,1.8023363910627774e-05,-0.00015900958285307754,0.11729260871761471,0.0018812358990924585,0.04627728462219238
1763290072.8462303,-0.0008468840723341832,0.0014932475872304679,-0.0008608857770634568,-9.994535238203015e-06,0.11603291842676211,0.0019362649111128356,-0.0003380614688256785,1.9426519160412268e-05,3.8329789075348375e-05,0.00014760354368470655,0.12172213679090316,0.0017691314836168622,0.050041913986206055
1763290072.8963568,0.0004414304326009382,0.0016465119105134494,-0.0015708046319407882,2.471744732963285e-05,0.11913105354747988,0.0018994374480139319,-0.0003477059898808503,9.572852117112849e-05,2.601273347497607e-05,-2.977600464344658e-05,0.1255445595178144,0.0016820406621871461,0.04969501495361328
1763290072.9463956,0.0017110061154387462,0.0016760517345963696,-0.002169282525063202,1.2819825192792463e-05,0.12206617609891834,0.0018516793562767483,-0.0003018912164018766,8.293962213737284e-05,4.8547644285651246e-05,-3.47682439431058e-05,0.12895960492622427,0.0015196427744796673,0.05012655258178711
1763290072.9965816,0.0031055790258338856,0.001567394820740279,-0.0026774774468100474,2.5072340363286455e-06,0.12482822287728967,0.001778688205551283,-0.000265336884184388,1.4474025887748909e-05,4.021708035133445e-05,0.00010149604427288683,0.1319181368443414,0.001145392741121406,0.050038814544677734
1763290073.0465977,0.00443761615873875,0.0013650944372396955,-0.003069475777254508,2.4595399194245928e-05,0.1274099579535406,0.001639356697525644,-0.00026248536735859625,1.981261305352324e-05,2.855108953592569e-05,9.680677100331831e-05,0.13434875577940608,0.001098189625458958,0.0501859188079834
1763290073.096235,0.00528632848769052,0.0009813592982635048,-0.0031120459434704753,4.0754645144403086e-05,0.1297703156016139,0.0015203196654827711,-0.00023425803828685724,7.557422077195759e-05,1.746342534457207e-05,-3.163034029480193e-05,0.13635996483456814,0.0010026851614041554,0.050016164779663086
1763290073.1464028,0.005825427763423318,0.0005644298423433968,-0.0029654229649642614,2.5094578617365512e-05,0.13189853280577024,0.001406537641267133,-0.00023932858691993325,6.286494983942489e-05,3.638874999576237e-05,-4.122791669238334e-05,0.13796632287394206,0.0008460176800933011,0.0496373176574707
1763290073.196237,0.006148360051971911,0.0002364696874380448,-0.0027178649503142743,1.0769165381189849e-05,0.13379451139715726,0.0012833029164560023,-0.00027052316298967725,9.42704087626294e-05,1.8325726100932908e-05,-0.0001844336568567557,0.13914095693864992,0.0005321568272424086,0.05016779899597168
1763290073.2466726,0.006422816505482837,-0.00026233730671198753,-0.0020606102735735866,-3.185421018658269e-05,0.13542734878553775,0.0011181781638687628,-0.00018451125834776156,0.00011384943626040595,1.689934052296195e-05,-0.00016770442600456766,0.14049504723457962,0.00065044961536114,0.049834251403808594
1763290073.2967224,0.006064974285358022,-0.00045315791365105595,-0.0016048058629737033,-6.15498443214867e-05,0.13691993806302816,0.0010153450904997609,-0.0001903457422562707,0.00013559250486739908,3.840303475217785e-06,-0.00018842612699347628,0.14137175589957485,0.0006286711345692013,0.050435543060302734
1763290073.3462386,0.005866114796709715,-0.0010146683228608893,-0.0008174820020909004,-8.932313573421678e-05,0.13820614250534136,0.0009303211403129736,-0.0001921038177181499,0.00011230737470836977,1.1309549833413269e-05,-0.00015620494287977535,0.14205610563357451,0.0003885859543125803,0.050049781799316406
1763290073.3966541,0.005888312220725128,-0.0017167010223303966,0.0004623744394690506,-0.00010387167440752356,0.13930212782410956,0.0008111604647906075,-0.0001881513628234105,9.11247467830713e-05,9.437994333111868e-06,-0.00016288189336581847,0.14261862186123775,0.00034443787530691105,0.04951620101928711
1763290073.446473,0.00553107468706811,-0.002204191102940581,0.002189401837714722,-0.00011677278216563096,0.14085316128369407,0.000708419766653142,-0.00017956168576644858,7.895677208527583e-05,1.2329309061141391e-05,-0.00017499901039915125,0.1431123944955337,0.00019495494089871997,0.0504155158996582
1763290073.4966834,0.005094655604550537,-0.0023295837342338743,0.0034302973800995366,-0.00012957483891876026,0.14261565097442097,0.0005953154632653415,-0.00016779525091345604,7.214245170286046e-05,1.9780170478350004e-05,-0.0001109474997024735,0.14363237497339743,0.0002689855489871116,0.04981875419616699
1763290073.5463738,0.004803394730109316,-0.0023170965370442314,0.004246598643503799,-0.0001255387149101856,0.14449210959401548,0.0005233037611756875,-0.00016776706914855218,6.794632434011704e-05,2.2948827220814757e-05,-4.187665243492812e-05,0.14442050121873273,0.00044932923845403976,0.05021047592163086
1763290073.5963216,0.00468151091650605,-0.001851840868443061,0.004777437057986205,-0.00010718241206375216,0.14641466920358348,0.0005067995625369647,-0.00015148509740435753,5.906544020152177e-05,3.427832822086951e-05,-1.6025734437074497e-05,0.1456223807803796,0.0005481664633803413,0.04969048500061035
1763290073.646366,0.004746974947247674,-0.0012990529387319053,0.005041749732047226,-8.714577359076043e-05,0.14843926216245729,0.0005156924493290525,-0.00022615516964221626,4.8250220134669215e-05,1.90084126511739e-05,-5.3036976680672303e-05,0.14708143875911994,0.0005292546959125378,0.04994773864746094
1763290073.6965184,0.004528472386034085,-0.0002461547052080439,0.00525115200793808,-7.966626245922556e-05,0.15054961728828475,0.0005184777451498517,-0.00022850886589962952,5.533445854295666e-05,4.5625595791622646e-05,4.134098886184536e-05,0.14920489602997966,0.0007929168827413669,0.05004429817199707
1763290073.7466636,0.004121560900821497,0.0013438196359554801,0.00532439009251827,-5.2957759050499777e-05,0.15283733360288343,0.0005787118706914761,-0.00025097404521588177,7.853842367800904e-05,4.0580978705355726e-05,-5.6425681352957476e-05,0.15156185557531376,0.0008973625389756562,0.05015254020690918
1763290073.79644,0.0035983494009833865,0.0028442714276858986,0.005087412697261147,-5.361145368263158e-05,0.15527835910220356,0.0006486880303744848,-0.00027463588502738803,9.035801210528214e-05,3.67102241284781e-05,-5.490848871620999e-05,0.1543673244363617,0.000983497033977336,0.05014514923095703
1763290073.8502333,0.0031252777345819652,0.003956144133070187,0.0047257823391110235,-5.378928057930984e-05,0.15789125796569237,0.0007222133848107504,-0.0002598119304483143,2.4215278990529905e-05,3.784554195656374e-05,0.00015462193070620963,0.15770038803582764,0.0010664049680794451,0.049776315689086914
1763290073.8964036,0.0028184521820684406,0.004948143960698137,0.004487082981115541,-7.827398472813309e-06,0.16099573594012884,0.0007978608190070039,-0.0002599061549918423,7.084392172249457e-05,4.214705151155727e-05,9.004599167446016e-05,0.16076189910899408,0.001350550217790161,0.05379343032836914
1763290073.9464765,0.0026318202065375696,0.005114975878916433,0.003994076937409229,1.3888020168376241e-05,0.16370882564883615,0.0009194922429589075,-0.0003286898905676517,6.88734452585743e-05,5.575668837184487e-05,3.938823196119596e-05,0.16408762586276482,0.0010634277712286433,0.04617023468017578
1763290074.000329,0.0028330960981744193,0.005358026187202605,0.0037221563826081543,1.9539410425131937e-05,0.16624617223729432,0.0009512044820923424,-0.0002864493709104661,-1.0335578112941757e-05,7.02749626906845e-05,0.00025589981785204517,0.16808874700551302,0.0012363585844064554,0.05007290840148926
1763290074.0463927,0.0033443836621751153,0.005549617966058822,0.0035508783907777157,7.15707633894653e-05,0.16877933267643597,0.0010140024623744677,-0.0003175857356778671,0.00010481142475216387,3.233370838406509e-05,1.1284896532506261e-05,0.17145749429403656,0.0012404318553622118,0.05385255813598633
1763290074.0966172,0.0033564251643527624,0.005367770724476159,0.0031260711384134975,5.8312574964403494e-05,0.17088229659599818,0.0010639282692090567,-0.000331958712611526,0.00012645473460898523,3.461163677723445e-05,-1.9882735591940875e-05,0.17481949400472696,0.0012213557617502075,0.04606366157531738
1763290074.1503205,0.0034315721460401473,0.0056121289167958945,0.0028316063035816502,4.1095623038531024e-05,0.1730985864018113,0.0010986520502544869,-0.0003117106778305299,7.110390261908634e-05,4.993952363226404e-05,4.8022903031136334e-05,0.17797653592460527,0.001012026338441574,0.05022454261779785
1763290074.1964464,0.003461310628534534,0.006058721699350187,0.0025700319606041873,4.265324254323633e-05,0.1753362933723468,0.0010796454187686525,-0.00023316702985731478,6.399174553285103e-05,5.21493248323836e-05,3.508841562380644e-05,0.1805272030176559,0.0009912503003475374,0.05370330810546875
1763290074.2465842,0.003228422953152285,0.00592938842185702,0.002229348867059282,4.102756378872721e-05,0.1773100113642727,0.0010602428705547872,-0.00023591702661659983,3.079068457769177e-05,4.7717231367857155e-05,8.93289307678213e-05,0.18260295600652277,0.0008641879881201628,0.04612588882446289
1763290074.3017948,0.0026761804464396676,0.005174529404266133,0.0015841386535611036,5.173033582903782e-05,0.17921423050572738,0.0010171366125089805,-0.00025728461405739167,6.046259900350598e-05,4.6110324576965013e-05,5.6503549573890917e-05,0.1844528823693352,0.0006726950192280247,0.05013775825500488
1763290074.3465075,0.002148861699896828,0.003858779821537817,0.000690050457407905,5.29184962960075e-05,0.18101993173389208,0.0009414158402121694,-0.0002246191924970489,0.00013374416822383367,3.0529920353651734e-05,-0.00015391942305965195,0.18579153655882585,0.0007268390721688028,0.05521059036254883
1763290074.3964407,0.0015407951820044115,0.002483097674065681,2.4862853536441663e-05,7.5109725733454566e-06,0.18251205282831817,0.0008943229487803567,-0.00021484384062185594,7.614809798477543e-05,4.5480396327265594e-05,-1.0657177417218359e-05,0.18695770873173623,0.0005747108446109104,0.04471278190612793
1763290074.4504182,0.0010628997505146738,0.0014703788493707845,-0.0004460229201465516,3.6252187240508387e-06,0.18389466873945048,0.0008240376722419882,-0.000223593301605351,9.428669945104106e-05,3.686497725206703e-05,-6.373553108658519e-05,0.1879328003729246,0.0005202839284992572,0.04993319511413574
1763290074.4966266,0.0004408451266354103,0.00045655355972846096,-0.0009393906808324601,-1.1094926952775779e-05,0.18513547062392655,0.000757251771912903,-0.0002462120939370004,0.00011465302501508404,2.8996000741829576e-05,-0.00017215352541393315,0.1885751990579374,0.00029408495191689905,0.05397748947143555
1763290074.5464075,-0.00010205329853291313,-0.0005474417928801811,-0.0012032670718831462,-4.6394118001860944e-05,0.18614299294890047,0.0006554194605721204,-0.000248609016881095,0.00014366141481326057,1.6704189684632237e-05,-0.0002538951608919983,0.18918045563640407,0.00028500107203234857,0.04620838165283203
1763290074.5965064,-0.00047981460953627406,-0.0016321784676796083,-0.0015977568502998356,-9.194792700975167e-05,0.1870326265890021,0.0005739834410928705,-0.00019832945292296128,9.485922079636259e-05,3.0259784156538994e-05,-0.00010306049422844713,0.18984086426298186,0.0003120630322684459,0.049780845642089844
1763290074.646558,-0.0008869689748504129,-0.0028993955586136756,-0.0021536651802178584,-9.433651343269447e-05,0.18783278002986448,0.0005163573943851781,-0.00018677129435418487,8.001207406096433e-05,3.802667205451783e-05,-7.482531169860906e-05,0.19028782336414318,0.00018000063003606286,0.05009889602661133
1763290074.6967754,-0.0011437108552276739,-0.00421695597432613,-0.0030433064908165375,-8.998093956259095e-05,0.18852200561352062,0.00044235320584401993,-0.00017594326333893523,8.698412412264301e-05,3.7136556973227106e-05,-0.00011776706062717332,0.1906533197041047,0.00013128540092162712,0.05005168914794922
1763290074.7465634,-0.0014124256911069244,-0.004958832053152232,-0.0034774993198820017,-9.60414360090473e-05,0.18911327950260803,0.00037392196498098627,-0.00017838336939240252,8.450139079541163e-05,2.8145720958505714e-05,-0.00010650844321012906,0.1909396665931593,0.00020508113389568867,0.050217390060424805
1763290074.796643,-0.0013279922174419976,-0.0054045623623382374,-0.003689830184230314,-9.832065421376569e-05,0.18961451191303347,0.00033677353966862447,-0.00017088401704202962,9.056579032434896e-05,3.2804113279018916e-05,-9.768188869644918e-05,0.19118335173454737,0.00016184719526650689,0.04978799819946289
1763290074.8467755,-0.0012405991223002374,-0.005722882606041626,-0.0037311952653778808,-9.81593136758569e-05,0.1900415113753744,0.00029828569608094464,-0.0001647667303959777,9.96945976868955e-05,2.7626963368425705e-05,-0.00014992642192860153,0.19137036060676915,0.00015483626881106254,0.0500795841217041
1763290074.896876,-0.0011562486236250634,-0.005901305727135826,-0.003759002383807537,-0.00010953270131238322,0.1904009110804572,0.00026672869129310575,-0.00014835958936891877,8.935627590035763e-05,2.8847607366928537e-05,-0.0001314521796994866,0.19156350161625224,7.83654238805033e-05,0.05013251304626465
1763290074.9464731,-0.0012640791161078165,-0.0060016624877123025,-0.0037278560130991033,-0.00011433776953439449,0.19071152203446307,0.00022528815672169696,-0.0001587318858044938,8.961962770200842e-05,2.8894710795429153e-05,-0.00015392588058208898,0.19165448384152106,3.5813821713083235e-05,0.05010056495666504
1763290074.996559,-0.0011591230531714635,-0.006044758324494809,-0.0037134852883859066,-0.00012303288703550762,0.19096349445729155,0.00018360446852118346,-0.00016635733078235757,9.370634866796193e-05,2.536924003512678e-05,-0.00018133012468300562,0.19173607146628568,7.988824123955915e-05,0.04959702491760254
1763290075.0466316,-0.0012335018150656683,-0.006138552612785701,-0.003611666122468733,-0.00013585187752360165,0.1911702585320223,0.0001607872327840819,-0.00015767951910286034,9.454809072486014e-05,2.392404800222894e-05,-0.00020263753036097834,0.19182260526133033,-1.217461895739609e-05,0.05008578300476074
1763290075.0966806,-0.001325452244731146,-0.006221934606384658,-0.003474875361990573,-0.00015053555432904242,0.19134388567143445,0.00012273680602103884,-0.00015258976530854444,9.147755428338291e-05,2.3234594805074245e-05,-0.00019771257315896583,0.1919171374336286,1.3606673153257211e-05,0.050072669982910156
1763290075.1465242,-0.0013558813884456636,-0.006386456117952623,-0.003152286739533591,-0.00016090962570509032,0.19149463692635038,9.872761614877076e-05,-0.0001434395827666447,8.285146373416203e-05,2.531945738432321e-05,-0.0001638764429501391,0.19200069508481254,-2.722461453622445e-06,0.0500490665435791
1763290075.1966572,-0.0015292882576771224,-0.006481125892104031,-0.00284921987688975,-0.00016155867042950083,0.19162606928469716,7.64062403615814e-05,-0.0001418373824228542,7.945366337303711e-05,2.9208270627206787e-05,-0.00013823480306273707,0.19205197720110534,-6.804420777947411e-06,0.049843549728393555
1763290075.2464914,-0.0015469668730882637,-0.0066844726120940025,-0.002314153595134991,-0.00015642515224891933,0.19173631173056327,5.8096908369676564e-05,-0.00014714918884988488,8.153338098628612e-05,3.055989883983291e-05,-0.0001365602692481797,0.19208970926212587,2.8126607602131123e-05,0.05013298988342285
1763290075.2968478,-0.0014555829315208626,-0.00618845744203465,-0.001833762095575988,-0.00015205451798919008,0.1918275315125535,5.150087969938388e-05,-0.0001543165862376177,8.328628839114807e-05,2.9677092144135435e-05,-0.00015019246921820195,0.19210728872425853,1.2602155698758454e-05,0.049834251403808594
1763290075.346456,-0.0016002828828794097,-0.005592597262057992,-0.0011793216315174172,-0.00015164430161161965,0.19190020803234087,4.2941565383886946e-05,-0.0001448436398438747,8.987440405533292e-05,2.772037735527104e-05,-0.00017045713620448768,0.19214574113346305,-1.671893464316548e-05,0.050356388092041016
1763290075.396657,-0.0017294975689880717,-0.005017321784417899,-0.0007919994626946746,-0.00015576035352537988,0.19136761110616995,2.9909496222597343e-05,-0.00014206504974329418,9.166475447699174e-05,2.716390244126432e-05,-0.00017368516067188265,0.19216462446131244,-1.7673533752517436e-05,0.04960823059082031
1763290075.4466598,-0.001782348913788549,-0.00453293871424533,-0.0004719381441802965,-0.0001596610531813699,0.19044810295442072,1.9620084890244518e-05,-0.00013950572067499743,8.851335449795479e-05,2.775198754345701e-05,-0.00014969767753102994,0.19215871300220466,3.130700431433882e-05,0.0502009391784668
1763290075.4968643,-0.0016893169826449925,-0.004095191163337224,-0.0002516682003185066,-0.00015742746365142777,0.1893269401940363,2.2430790295645437e-05,-9.553849171176413e-05,4.0572595931337315e-05,3.935734711944638e-05,0.00014904927501780766,0.19198524904052405,0.0001397060754799122,0.0500028133392334
1763290075.5466018,-0.0014983747973540235,-0.003630503788762564,-0.00015195395635901008,-9.002383981995775e-05,0.1880724784988539,4.838219838471294e-05,-0.00014147942863289878,0.00010287991809016645,2.6854633893490982e-05,2.6287855050277243e-05,0.19095680695995054,-0.00019095627985430476,0.05020451545715332
1763290075.6014397,-0.001320789199514507,-0.003061652977673562,-0.00024335349779441092,-6.429376124327534e-05,0.18661502208316771,-4.115498390025834e-06,-0.0001401595175993398,0.00017406295376772048,-2.54515332915441e-06,-0.0002245793927027291,0.18932283527115534,-0.0003110298878292854,0.04973745346069336
1763290075.6468427,-0.001142010227299854,-0.002613772999375448,-0.0004182069552141032,-9.934917308162095e-05,0.1846380130231513,-7.135473692523663e-05,-6.434551581188022e-05,0.0001832805693655758,-2.214542927017461e-05,-0.0002525438871074124,0.18773510769918889,-0.0004030815913038726,0.054837942123413086
1763290075.6970682,-0.0009324581155411868,-0.0020934116903288157,-0.00045961710809708093,-0.00013282098741216686,0.1830400553279543,-0.00014399207622528475,-2.6011800389820507e-05,0.00011124200689335874,-8.01204130192329e-06,-0.00019984516417628572,0.18541361651098787,-0.0006201226435974465,0.04540300369262695
1763290075.750564,-0.0007631020633338547,-0.0019003910903774796,-0.0003643252129575265,-0.00014725403843765148,0.18088994573743222,-0.000248302613132915,-2.3033555013680662e-05,0.0001024845621894652,-9.792058524267098e-06,-0.0002178066163003363,0.18254361427549282,-0.0006632451143116898,0.05022549629211426
1763290075.7967055,-0.0004921019809789082,-0.0018649161198287688,-0.0002455963860564633,-0.00016249154112939714,0.1782683277199606,-0.0003390742941466987,7.796525154111987e-06,0.00014339637134835336,-1.4827496818305763e-06,-0.0003914997269256532,0.17975216343679468,-0.0008939358428076333,0.05349588394165039
1763290075.8467586,-0.00023217924609798767,-0.0017452359954827973,-0.00013347622563153404,-0.00021254223587627053,0.17593502340161749,-0.0004605656814559858,-1.1451910073164773e-05,0.00015548586005127715,-2.598752007831412e-05,-0.0004038151748957648,0.17648358130464592,-0.0010185014063646169,0.04614138603210449
1763290075.9006114,-7.527664441496632e-05,-0.001601073104973985,-0.0001092611752164028,-0.0002542870410691621,0.17308816297531848,-0.0005825622015622214,2.5908531621712516e-06,0.00010151333415230973,-2.394607016974265e-05,-0.0003218675510225759,0.17286247317742998,-0.0012398420988981112,0.05005311965942383
1763290075.9466407,5.439654208478711e-05,-0.001545551152122504,-0.00011382210399331492,-0.00026877989631394366,0.16976826762595665,-0.0007262583008258701,5.6435100329291124e-05,0.00016204581197475714,-3.121423004208287e-05,-0.0005080036135113485,0.16963791818913676,-0.0012811756172757117,0.05385279655456543
1763290075.996757,0.0001890281173946272,-0.001314406673786192,-7.519333169171536e-05,-0.0003210975915245708,0.16689814628078992,-0.0008474642823008613,7.877115973857334e-05,7.840506878099119e-05,-8.019088270850895e-06,-0.000374073760634217,0.16593369774608013,-0.0013075070338614497,0.04602932929992676
1763290076.0503833,0.0003249325138894597,-0.0011410814525358753,1.9047791478766467e-06,-0.00033245961456822206,0.16354692834247042,-0.0009476180563336155,7.332547591342958e-05,7.976590374943758e-05,-1.946663901250351e-05,-0.0003368013976932625,0.16188922145339935,-0.0014074340147279222,0.05011630058288574
1763290076.0971315,0.00038495429137396685,-0.0009283988996840362,4.115332936923884e-05,-0.0003331222971205985,0.1597811915881866,-0.0010476140427542766,6.347375400432712e-05,0.00012786816548465482,-3.5348108562271614e-05,-0.0004717696774989998,0.15819093274131224,-0.0014393501607435962,0.053626298904418945
1763290076.146592,0.0003655037808984856,-0.0006720461968971074,2.9002060045383045e-05,-0.00036338531425429476,0.15644032357801096,-0.0011327483552547712,7.969623421545193e-05,0.0001676336100663315,-2.7936235605713912e-05,-0.0005883223689763537,0.1543480826710042,-0.0014896090897577984,0.04674816131591797
1763290076.2004685,0.00031477360121559756,-0.0005445845490792704,9.913797242805682e-05,-0.0004126231451536917,0.15279129492343446,-0.0012100369228020063,0.00012692820845033783,0.0001258848861336593,-2.541460083158148e-05,-0.00047258178281269826,0.15012437322969308,-0.0014476427453324757,0.049460411071777344
1763290076.246749,0.0002545779846496694,-0.0004962151158815043,0.00016403407689519008,-0.00042555609887090143,0.14870776058873347,-0.0012608362391755244,0.0001373855035614902,6.808669367284268e-05,-2.718407894511701e-05,-0.0003336150521043766,0.14632198383442674,-0.0015873464315928243,0.053876638412475586
1763290076.2969065,2.366306367391108e-05,-0.0004063152231000038,0.0003294520004818219,-0.00040509875761439044,0.1451650050531177,-0.0013313762993180872,9.154501169836095e-05,0.00016702717414702475,-3.399705302120577e-05,-0.0005575828698865972,0.14220965246767858,-0.0016394458495302552,0.0462803840637207
1763290076.346953,-0.0001561518325496966,-0.00030932811986189606,0.00040053825876023837,-0.00043841762675141875,0.14123046786895044,-0.0013977864209353678,0.0001226829759822564,7.125586453505094e-05,-1.4621603231057372e-05,-0.00036374599836744634,0.13801564255473808,-0.0016810808557951625,0.05015754699707031
1763290076.3971164,-0.0002626982574918645,-0.0003189202104333479,0.00043204398417707237,-0.00042176422639567666,0.13723498882975527,-0.00145865901728525,0.00014986118061072908,7.279658873231308e-05,-2.3384103896241533e-05,-0.0003601686519377556,0.13393018940004575,-0.0017385221626195374,0.050046443939208984
1763290076.44695,-0.0002867596691907895,-0.0003363876613476874,0.0004572957007772252,-0.00040805455903272076,0.13381123524234306,-0.00151908160257771,0.00012681812210296495,0.0001356537156970462,-1.3146764238761802e-05,-0.0005486589508587027,0.12975626204427337,-0.0016951664688674669,0.05016350746154785
1763290076.4968112,-0.0002438193333805567,-0.0004639987392136641,0.0005183080273451564,-0.00043888927385500663,0.13072433733572852,-0.0015569345312320352,0.00013750205135764872,0.00011062789048027678,-3.960033671355993e-05,-0.000435556085529882,0.1256323616395194,-0.0017270870850288962,0.04983353614807129
1763290076.5466454,-0.00021163965806526944,-0.00061589279579227,0.00048719437324890475,-0.000438094259675851,0.12780515172665674,-0.001593576473504648,0.00013355417254182458,8.63059840373132e-05,-3.326203696360108e-05,-0.0003728411878779514,0.12191388138602366,-0.001639535514772939,0.04986119270324707
1763290076.596776,-0.0002472291674973605,-0.0006531918625238937,0.00047175221169866807,-0.0004236696777310788,0.12503603508974903,-0.0016030164478438838,0.00010983766975201456,0.00013537226606488687,-2.8450535521337023e-05,-0.00045796398683541057,0.11854767437831581,-0.0014184311906064089,0.049834251403808594
1763290076.646756,-0.0002394939930274424,-0.0006191454910577123,0.0004291312941098862,-0.0004310736054477667,0.12239603624728912,-0.0015618951458629226,0.00011238518149859374,0.00015590235912489817,-2.7829477635875608e-05,-0.000453675515047073,0.11571816184147599,-0.0012910202024203643,0.050130605697631836
1763290076.6967072,-0.00038893753956553196,-0.0004262003860708003,0.000532337068279479,-0.0004358687191101991,0.1199370485750384,-0.0015018683493910263,8.786500220727471e-05,3.436229989978649e-05,-6.497613036215661e-06,-0.00021493053404281646,0.11333994303946127,-0.0012092136787698253,0.04997992515563965
1763290076.7547233,-0.0005582768888763709,-0.0002630725304217493,0.0005793035206822775,-0.000387067227750707,0.1176755724804126,-0.0014370062262867792,8.846905575795989e-05,7.534633637889348e-05,-1.1057853252261634e-05,-0.00023041148141417255,0.11118004155782324,-0.0009163801992450683,0.04995131492614746
1763290076.796826,-0.0008473184118268357,-9.63614020314509e-05,0.0006837093464042698,-0.00025845152535900465,0.11550076980197987,-0.0005151928401618147,3.0791870455164874e-05,4.392537543153775e-05,-2.6439103087548808e-06,-0.00019967640906330442,0.10967906849336728,-0.0009962973254359646,0.058016061782836914
1763290076.8466418,-0.0008533341425282457,-1.2366166616832442e-06,0.0006020728721265228,-0.0001390235067183808,0.11376268762905317,0.0003119192233794202,5.015236029304551e-05,7.922836117668247e-05,-1.3925681372764734e-05,-0.00021372291629937035,0.10851169017599305,-0.0005392767809295719,0.04210257530212402
1763290076.8967617,-0.0008261653494692455,6.02153291679035e-05,0.0005842492121670119,1.422482458761116e-05,0.11216406913478716,0.0016329682903426484,2.0074087973589132e-05,0.00011413084659538358,-1.3962696733010446e-05,-0.00022189472664399686,0.10737394309361359,-6.592292333013911e-06,0.04981589317321777
1763290076.946976,-0.0007460708515365894,4.984216858953546e-05,0.0005112016081899708,0.00016772636070813015,0.11074498446385395,0.0031248510279372928,-9.444200428545552e-07,4.771674809546392e-05,1.0345166773975562e-05,3.806568273323901e-05,0.10647110723152031,0.0008244001375981176,0.050119876861572266
1763290076.996876,-0.0005305265438757436,-1.4574136965629573e-05,0.00038780039807773017,0.00037267060543754295,0.10950496935536314,0.004750027081872187,-9.317782136292975e-06,6.943187525859315e-05,4.665203445257351e-06,0.00014548952197606215,0.10576821064480257,0.002314995604222734,0.050214290618896484
1763290077.0467393,-0.00035280434889263,-4.405477847279573e-05,0.0002889710002831569,0.0005764988937122006,0.10843830410116895,0.006554592884691518,-1.708777819004513e-05,8.959658255533733e-05,-5.668942442906068e-06,0.00028250450876753536,0.10517088678779363,0.004252208726828812,0.049900054931640625
1763290077.0967155,-0.00017888921896371974,-5.995409355503059e-05,0.00016003739351713503,0.0007828472229742983,0.10751849886840437,0.008568448098001601,-6.886321657773537e-06,8.725552280594183e-05,-4.104627991196859e-06,0.0005776483935440268,0.10476517020544729,0.006765288241658647,0.049863338470458984
1763290077.1468112,-5.20367857858675e-05,-0.00013354715585539155,7.76799581603323e-05,0.001023419537631253,0.10674681479577464,0.01084745185784976,-1.5440728686229603e-05,8.48346405579582e-05,-1.1204624226254914e-06,0.0008834930195951168,0.10435736640001281,0.009451611714234668,0.04997611045837402
1763290077.1968362,4.682729205744853e-06,-0.0001958224705874303,7.12765949764254e-05,0.0012903188026404985,0.10608372716591918,0.013345505576303311,-3.013325536843651e-05,7.143965380964537e-05,7.740475184116765e-06,0.0012435049574343962,0.10400532665930529,0.012441788298888482,0.05009579658508301
1763290077.2466924,0.00016733251556854078,-0.00032212739127681516,-0.00022473815100942094,0.0015862804973849974,0.10551261918028798,0.016048268166501036,-5.461586189686582e-05,7.621142999801195e-05,-2.4106238281095e-06,0.0014851808594906206,0.10369789513252092,0.015643619202714138,0.050024986267089844
1763290077.2970204,0.0001766053827551668,-0.00033662497127322113,-0.0003512986485182781,0.001876401851231443,0.10501867861360936,0.018932668077346265,-4.588269350297343e-05,6.80786905212773e-05,1.2723997882483598e-06,0.0018652954070650788,0.10348167929536745,0.019066905848146732,0.04985618591308594
1763290077.3507006,0.0007449171916039985,-0.0005823812655695748,-0.0008561681099718016,0.002130722847067892,0.1046016903557987,0.02141633695963955,-4.663838507124486e-05,7.868092841823274e-05,-5.246820771049324e-06,0.002205905392209964,0.10327607184789289,0.022937178856693583,0.05032801628112793
1763290077.3969026,0.0012597616090345345,-0.0008260830238334074,-0.0010038974717490351,0.0023675324215935854,0.10424166592758621,0.02386264040121404,-4.454673216431588e-05,8.014821218877818e-05,-6.682469860654471e-06,0.002558372054017194,0.10314125878299607,0.026380887843321293,0.0536801815032959
1763290077.4468176,0.0012722105851875882,-0.0007694380296200575,-0.0008352482729046134,0.002566725983159653,0.10395033676733445,0.025927469460698727,-5.0747107831489696e-05,7.467476541280825e-05,-3.233848163527597e-06,0.0029269167579037874,0.10300750594929764,0.02966332182127313,0.04620194435119629
1763290077.5007038,0.0014490148793190947,-0.0005844289348617404,-0.0005738637304005417,0.002784793541220964,0.10369912818733007,0.02808614951760824,-6.0647561705160246e-05,7.083135150513712e-05,-2.132709577270318e-07,0.0032775031216147844,0.10290560279564431,0.032924829302723516,0.04991507530212402
1763290077.5467477,0.0013761398556752132,-0.0005217244462829885,-0.0005535095503009396,0.003013791057038967,0.10348627930357757,0.030313960492535694,-6.231181779908741e-05,6.479787658956534e-05,2.7425943213865526e-06,0.003561753939569221,0.10282053361767174,0.035427995005923696,0.05388617515563965
1763290077.597192,0.0014028783171655442,-0.00034760048841368996,-0.000273612337663732,0.00270331535224155,0.1033130277646539,0.032265884967142784,-6.51363968957108e-05,6.154944572839457e-05,4.416564786617869e-06,0.0037834564049426017,0.10275271123431606,0.03747135458155907,0.04604387283325195
1763290077.6509097,0.0014504927373265315,-0.00017073113748080926,-1.7436687787032169e-06,0.0019400298209280163,0.10316678819210146,0.03415148291391691,-5.421276588219699e-05,5.5152908959350316e-05,5.262564233854213e-06,0.003905391209564027,0.10270727834827253,0.03935110735495823,0.05044436454772949
1763290077.6969087,0.001421173084306639,-7.873283542100109e-05,0.0002946791058794615,0.0008196989632150256,0.10304741450231902,0.035931457968659576,-7.668003209400893e-05,9.150949004314679e-05,-5.032934585433271e-06,0.0035529654103449585,0.10256153451296202,0.04048616166687623,0.053717613220214844
1763290077.7470112,0.001217570783221825,-2.005657425466964e-05,0.0004222457744932053,-0.00020081523700413173,0.10292859970012969,0.03738672377342706,-6.07331699109769e-05,4.431384151223327e-05,5.521770890959324e-06,0.002867157381158209,0.1025498345330933,0.041716425873565464,0.04599905014038086
1763290077.800578,0.0011487127231043827,3.9940842234588225e-05,0.0004994242753101008,-0.0015785869194613236,0.10283556502421853,0.038743282295328176,-5.284835324753469e-05,-7.5162850362695495e-06,1.0876768911289646e-05,0.0015258461590054375,0.10252164804960295,0.042955324382853016,0.05010247230529785
1763290077.8468933,0.0009825684814814975,9.772996332422123e-05,0.0005849764100796337,-0.0033561996931947735,0.10275910669913246,0.04001860177183949,-8.549326800241959e-05,6.609332198137767e-05,-2.2500202890102124e-05,-0.0003805659404438321,0.10245351352286769,0.04368305491106964,0.053566932678222656
1763290077.8967922,0.0008023102856967615,0.0001531545165824036,0.0006161270250802886,-0.004991733057964531,0.10268721997029062,0.0410753128373707,-5.201536503235448e-05,-6.527115037357777e-05,1.831622541364982e-05,-0.0023093205362984233,0.10249855132488284,0.04434396149163425,0.04631519317626953
1763290077.950594,0.0006577143394666306,0.00012162089521988657,0.0007138969048321113,-0.007024850341856936,0.10264206210839144,0.042015460269901474,-0.00010595164921476256,-1.41413664285156e-05,2.9940178893277387e-06,-0.005267286178616715,0.10236573457920017,0.04504163233635615,0.04989886283874512
1763290077.9970999,0.0005452028449883623,0.00012003117298029707,0.0007493910250215748,-0.00961384570935965,0.10257851048298372,0.04287346380532267,-0.0001025907016861928,3.1073115562596966e-05,-1.0996822600161942e-05,-0.008144649350260312,0.10237274625450388,0.04538822135592682,0.053801774978637695
1763290078.0471728,0.0004171655586955181,0.00012481889479581373,0.0007316286201512451,-0.01195276239450181,0.10253161476688111,0.043564675693249004,-7.230856695274022e-05,-2.2588170400920202e-05,8.350907457067056e-06,-0.011134852806261853,0.10244475680475484,0.046048497131932827,0.04650592803955078
1763290078.0968938,0.00034669140508904195,0.00014657758315213975,0.0007452621780665885,-0.014725185275496964,0.10251143287557163,0.04423266225042891,-0.00013232845223992877,-2.0948984107626864e-05,6.044628335885257e-06,-0.01459482939309094,0.10227773512187222,0.046146388657322436,0.05007290840148926
1763290078.147227,0.00028962001895285294,0.00011870336979555897,0.0006584912215638761,-0.01769754985582949,0.10245928410542327,0.04475266501273436,-0.0001270971279632503,-8.512106638402878e-05,1.3587987045074876e-05,-0.01802865359018897,0.10226563511075226,0.04638201066878602,0.04972100257873535
1763290078.1971292,0.00014333716850375224,5.244952949694713e-05,0.0005910413682703573,-0.020866673323525924,0.10241629099146365,0.045193046785094886,-8.773835553417224e-05,-4.878230494810762e-06,-5.353417970713996e-06,-0.021786234863985756,0.10240067627364491,0.046799433508947344,0.050333261489868164
1763290078.2468774,1.872187043875471e-05,-2.294677591505044e-05,0.0006145607486190576,-0.02418563880908539,0.10241276416206269,0.04561293319531621,-0.00012950541493612905,-5.247095438408671e-05,8.965633167537555e-06,-0.02557511109228157,0.1022720747846948,0.046917357909906504,0.04990220069885254
1763290078.2968214,-3.4740507182931866e-06,-0.00019676432616416722,0.0005012921810607622,-0.027636510139607554,0.10238187021046796,0.0459542548045957,-0.00014342388492445473,-1.8420613346462703e-05,-4.371682669714931e-07,-0.029447488413467768,0.10224583124744013,0.0471466890427787,0.04974818229675293
1763290078.346856,-7.943089132084419e-08,-0.0002091969624094795,0.00027451245918143645,-0.03122400095532099,0.1023521353082224,0.046261272697524475,-7.767336152908672e-05,-6.772717478411689e-05,9.304928898768401e-06,-0.033331495707533874,0.10239379606986754,0.04720500145660177,0.04994392395019531
1763290078.3969383,1.948672497126696e-05,-0.00022151469894835565,0.00015462911432509874,-0.03490843941149712,0.10236156469460878,0.046505506432735905,-0.00014075422737546282,-0.0001129505886813972,1.183483594882174e-05,-0.03725219436863846,0.10223876949887867,0.047298185177920886,0.05003476142883301
1763290078.4468338,1.8314818878820913e-05,-0.0002744350024236977,0.0001057413231832868,-0.038669129268587676,0.10233486664285363,0.046709916633347455,-9.140612669449383e-05,-2.7007741817533698e-05,-1.5385224253009543e-05,-0.041428710083076775,0.10239579923406739,0.04755401398166252,0.05008220672607422
